{"meta":{"country":"EE","currency":"EUR","source":"anwb.nl (ANWB POI API)","confidence":0.85,"fetched_at":"2026-06-20T10:21:41.265430+00:00","station_count":345},"stations":[{"id":"ee_xavvy_M_EST_10157753","country":"EE","name":"CIRCLE K","brand":"CIRCLE K","address":"Instituudi Tee 130","city":"Saue Vald","lat":59.358924,"lon":24.60139,"source":"anwb.nl (ANWB POI API)","confidence":0.85,"prices":[{"fuel_type":"E10","price":1.9,"currency":"EUR","unit":"L","updated_at":"2026-06-20T10:15:52.516671+00:00"},{"fuel_type":"DIESEL","price":1.819,"currency":"EUR","unit":"L","updated_at":"2026-06-20T10:15:52.516671+00:00"}]},{"id":"ee_xavvy_M_EST_10647972","country":"EE","name":"CIRCLE K","brand":"CIRCLE K","address":"Tallinna Mnt 22","city":"Risti","lat":58.996954,"lon":24.073128,"source":"anwb.nl (ANWB POI API)","confidence":0.85,"prices":[{"fuel_type":"E10","price":1.898,"currency":"EUR","unit":"L","updated_at":"2026-06-20T10:15:52.516671+00:00"},{"fuel_type":"DIESEL","price":1.714,"currency":"EUR","unit":"L","updated_at":"2026-06-20T10:15:52.516671+00:00"}]},{"id":"ee_xavvy_M_EST_11257629","country":"EE","name":"OLEREX","brand":"OLEREX","address":"Tartu Mnt 15b","city":"Johvi","lat":59.352772,"lon":27.410737,"source":"anwb.nl (ANWB POI API)","confidence":0.85,"prices":[{"fuel_type":"DIESEL","price":1.685,"currency":"EUR","unit":"L","updated_at":"2026-06-20T10:15:52.516671+00:00"}]},{"id":"ee_xavvy_M_EST_11468130","country":"EE","name":"ALEXELA","brand":"ALEXELA","address":"Kuusalu Tee 48","city":"Harjumaa","lat":59.447452,"lon":25.433924,"source":"anwb.nl (ANWB POI API)","confidence":0.85,"prices":[{"fuel_type":"DIESEL","price":1.735,"currency":"EUR","unit":"L","updated_at":"2026-06-20T10:15:52.516671+00:00"}]},{"id":"ee_xavvy_M_EST_11823156","country":"EE","name":"CIRCLE K","brand":"CIRCLE K","address":"Turu Tn 32a","city":"Tartu Linn","lat":58.360862,"lon":26.740933,"source":"anwb.nl (ANWB POI API)","confidence":0.85,"prices":[{"fuel_type":"DIESEL","price":1.999,"currency":"EUR","unit":"L","updated_at":"2026-06-20T10:15:52.516671+00:00"}]},{"id":"ee_xavvy_M_EST_21516","country":"EE","name":"CIRCLE K","brand":"CIRCLE K","address":"Paldiski Mnt 106","city":"Tallinn","lat":59.424113,"lon":24.646658,"source":"anwb.nl (ANWB POI API)","confidence":0.85,"prices":[{"fuel_type":"E10","price":1.765,"currency":"EUR","unit":"L","updated_at":"2026-06-20T10:15:52.516671+00:00"},{"fuel_type":"DIESEL","price":1.789,"currency":"EUR","unit":"L","updated_at":"2026-06-20T10:15:52.516671+00:00"}]},{"id":"ee_xavvy_M_EST_21517","country":"EE","name":"CIRCLE K","brand":"CIRCLE K","address":"Haljala Tee 6","city":"Tõrremäe Küla","lat":59.366032,"lon":26.338256,"source":"anwb.nl (ANWB POI API)","confidence":0.85,"prices":[{"fuel_type":"E10","price":1.899,"currency":"EUR","unit":"L","updated_at":"2026-06-20T10:15:52.516671+00:00"},{"fuel_type":"DIESEL","price":2.06,"currency":"EUR","unit":"L","updated_at":"2026-06-20T10:15:52.516671+00:00"}]},{"id":"ee_xavvy_M_EST_21518","country":"EE","name":"CIRCLE K","brand":"CIRCLE K","address":"Jüri 45","city":"Võru Linn","lat":57.842157,"lon":27.006952,"source":"anwb.nl (ANWB POI API)","confidence":0.85,"prices":[{"fuel_type":"E10","price":1.74,"currency":"EUR","unit":"L","updated_at":"2026-06-20T10:15:52.516671+00:00"},{"fuel_type":"DIESEL","price":1.969,"currency":"EUR","unit":"L","updated_at":"2026-06-20T10:15:52.516671+00:00"}]},{"id":"ee_xavvy_M_EST_21519","country":"EE","name":"CIRCLE K","brand":"CIRCLE K","address":"Võidujooksu Tn 10","city":"Tallinn","lat":59.435834,"lon":24.81067,"source":"anwb.nl (ANWB POI API)","confidence":0.85,"prices":[{"fuel_type":"E10","price":1.438,"currency":"EUR","unit":"L","updated_at":"2026-06-20T10:15:52.516671+00:00"}]},{"id":"ee_xavvy_M_EST_21520","country":"EE","name":"CIRCLE K","brand":"CIRCLE K","address":"Riia Mnt 52a","city":"Viljandi Linn","lat":58.345978,"lon":25.578449,"source":"anwb.nl (ANWB POI API)","confidence":0.85,"prices":[{"fuel_type":"E10","price":1.519,"currency":"EUR","unit":"L","updated_at":"2026-06-20T10:15:52.516671+00:00"},{"fuel_type":"DIESEL","price":1.864,"currency":"EUR","unit":"L","updated_at":"2026-06-20T10:15:52.516671+00:00"}]},{"id":"ee_xavvy_M_EST_21521","country":"EE","name":"CIRCLE K","brand":"CIRCLE K","address":"Endla 1","city":"Viljandi Linn","lat":58.370012,"lon":25.598886,"source":"anwb.nl (ANWB POI API)","confidence":0.85,"prices":[{"fuel_type":"E10","price":1.619,"currency":"EUR","unit":"L","updated_at":"2026-06-20T10:15:52.516671+00:00"},{"fuel_type":"DIESEL","price":1.949,"currency":"EUR","unit":"L","updated_at":"2026-06-20T10:15:52.516671+00:00"}]},{"id":"ee_xavvy_M_EST_21522","country":"EE","name":"CIRCLE K","brand":"CIRCLE K","address":"Randvere Tee 1","city":"Miiduranna Küla","lat":59.4987,"lon":24.828975,"source":"anwb.nl (ANWB POI API)","confidence":0.85,"prices":[{"fuel_type":"E10","price":1.839,"currency":"EUR","unit":"L","updated_at":"2026-06-20T10:15:52.516671+00:00"},{"fuel_type":"DIESEL","price":1.819,"currency":"EUR","unit":"L","updated_at":"2026-06-20T10:15:52.516671+00:00"}]},{"id":"ee_xavvy_M_EST_21523","country":"EE","name":"CIRCLE K","brand":"CIRCLE K","address":"Pikk Tn 1","city":"Valga Linn","lat":57.788609,"lon":26.048251,"source":"anwb.nl (ANWB POI API)","confidence":0.85,"prices":[{"fuel_type":"E10","price":1.849,"currency":"EUR","unit":"L","updated_at":"2026-06-20T10:15:52.516671+00:00"},{"fuel_type":"DIESEL","price":1.753,"currency":"EUR","unit":"L","updated_at":"2026-06-20T10:15:52.516671+00:00"}]},{"id":"ee_xavvy_M_EST_21524","country":"EE","name":"CIRCLE K","brand":"CIRCLE K","address":"Tallinna Mnt 77","city":"Uuemõisa Alevik","lat":58.938675,"lon":23.574076,"source":"anwb.nl (ANWB POI API)","confidence":0.85,"prices":[{"fuel_type":"DIESEL","price":1.939,"currency":"EUR","unit":"L","updated_at":"2026-06-20T10:15:52.516671+00:00"},{"fuel_type":"E10","price":1.769,"currency":"EUR","unit":"L","updated_at":"2026-06-20T10:15:52.516671+00:00"}]},{"id":"ee_xavvy_M_EST_21525","country":"EE","name":"CIRCLE K","brand":"CIRCLE K","address":"Urge Kla, Kohila Vald","city":"Urge Küla","lat":59.181587,"lon":24.781578,"source":"anwb.nl (ANWB POI API)","confidence":0.85,"prices":[{"fuel_type":"DIESEL","price":1.849,"currency":"EUR","unit":"L","updated_at":"2026-06-20T10:15:52.516671+00:00"}]},{"id":"ee_xavvy_M_EST_21526","country":"EE","name":"CIRCLE K","brand":"CIRCLE K","address":"Võru Tn 250","city":"Tartu","lat":58.3429,"lon":26.714819,"source":"anwb.nl (ANWB POI API)","confidence":0.85,"prices":[{"fuel_type":"E10","price":1.564,"currency":"EUR","unit":"L","updated_at":"2026-06-20T10:15:52.516671+00:00"},{"fuel_type":"DIESEL","price":1.819,"currency":"EUR","unit":"L","updated_at":"2026-06-20T10:15:52.516671+00:00"}]},{"id":"ee_xavvy_M_EST_21527","country":"EE","name":"CIRCLE K","brand":"CIRCLE K","address":"Turu Tn 6","city":"Tartu","lat":58.377148,"lon":26.73163,"source":"anwb.nl (ANWB POI API)","confidence":0.85,"prices":[{"fuel_type":"DIESEL","price":1.82,"currency":"EUR","unit":"L","updated_at":"2026-06-20T10:15:52.516671+00:00"},{"fuel_type":"E10","price":1.76,"currency":"EUR","unit":"L","updated_at":"2026-06-20T10:15:52.516671+00:00"}]},{"id":"ee_xavvy_M_EST_21529","country":"EE","name":"CIRCLE K","brand":"CIRCLE K","address":"Ringtee 71","city":"Tartu","lat":58.360399,"lon":26.677392,"source":"anwb.nl (ANWB POI API)","confidence":0.85,"prices":[{"fuel_type":"DIESEL","price":1.819,"currency":"EUR","unit":"L","updated_at":"2026-06-20T10:15:52.516671+00:00"},{"fuel_type":"E10","price":1.745,"currency":"EUR","unit":"L","updated_at":"2026-06-20T10:15:52.516671+00:00"}]},{"id":"ee_xavvy_M_EST_21530","country":"EE","name":"CIRCLE K","brand":"CIRCLE K","address":"Kalda Tee 1","city":"Tartu","lat":58.372888,"lon":26.753749,"source":"anwb.nl (ANWB POI API)","confidence":0.85,"prices":[{"fuel_type":"DIESEL","price":1.949,"currency":"EUR","unit":"L","updated_at":"2026-06-20T10:15:52.516671+00:00"}]},{"id":"ee_xavvy_M_EST_21531","country":"EE","name":"CIRCLE K","brand":"CIRCLE K","address":"Võru Tn 81","city":"Tartu","lat":58.355886,"lon":26.721212,"source":"anwb.nl (ANWB POI API)","confidence":0.85,"prices":[{"fuel_type":"E10","price":1.689,"currency":"EUR","unit":"L","updated_at":"2026-06-20T10:15:52.516671+00:00"},{"fuel_type":"DIESEL","price":1.819,"currency":"EUR","unit":"L","updated_at":"2026-06-20T10:15:52.516671+00:00"}]},{"id":"ee_xavvy_M_EST_21532","country":"EE","name":"CIRCLE K","brand":"CIRCLE K","address":"A. H. Tammsaare Tee 112","city":"Tallinn","lat":59.408538,"lon":24.686471,"source":"anwb.nl (ANWB POI API)","confidence":0.85,"prices":[{"fuel_type":"E10","price":1.734,"currency":"EUR","unit":"L","updated_at":"2026-06-20T10:15:52.516671+00:00"},{"fuel_type":"DIESEL","price":1.859,"currency":"EUR","unit":"L","updated_at":"2026-06-20T10:15:52.516671+00:00"}]},{"id":"ee_xavvy_M_EST_21533","country":"EE","name":"CIRCLE K","brand":"CIRCLE K","address":"J. Sütiste Tee 1","city":"Tallinn","lat":59.400916,"lon":24.695683,"source":"anwb.nl (ANWB POI API)","confidence":0.85,"prices":[{"fuel_type":"DIESEL","price":1.819,"currency":"EUR","unit":"L","updated_at":"2026-06-20T10:15:52.516671+00:00"},{"fuel_type":"E10","price":1.839,"currency":"EUR","unit":"L","updated_at":"2026-06-20T10:15:52.516671+00:00"}]},{"id":"ee_xavvy_M_EST_21534","country":"EE","name":"CIRCLE K","brand":"CIRCLE K","address":"Paldiski Mnt 44","city":"Tallinn","lat":59.43274,"lon":24.714527,"source":"anwb.nl (ANWB POI API)","confidence":0.85,"prices":[{"fuel_type":"DIESEL","price":1.819,"currency":"EUR","unit":"L","updated_at":"2026-06-20T10:15:52.516671+00:00"},{"fuel_type":"E10","price":1.644,"currency":"EUR","unit":"L","updated_at":"2026-06-20T10:15:52.516671+00:00"}]},{"id":"ee_xavvy_M_EST_21535","country":"EE","name":"CIRCLE K","brand":"CIRCLE K","address":"Tartu Mnt 86","city":"Tallinn","lat":59.424386,"lon":24.784038,"source":"anwb.nl (ANWB POI API)","confidence":0.85,"prices":[{"fuel_type":"E10","price":1.674,"currency":"EUR","unit":"L","updated_at":"2026-06-20T10:15:52.516671+00:00"},{"fuel_type":"DIESEL","price":1.753,"currency":"EUR","unit":"L","updated_at":"2026-06-20T10:15:52.516671+00:00"}]},{"id":"ee_xavvy_M_EST_21537","country":"EE","name":"CIRCLE K","brand":"CIRCLE K","address":"Riia Mnt 233","city":"Pärnu Linn","lat":58.362779,"lon":24.560683,"source":"anwb.nl (ANWB POI API)","confidence":0.85,"prices":[{"fuel_type":"E10","price":1.714,"currency":"EUR","unit":"L","updated_at":"2026-06-20T10:15:52.516671+00:00"},{"fuel_type":"DIESEL","price":1.714,"currency":"EUR","unit":"L","updated_at":"2026-06-20T10:15:52.516671+00:00"}]},{"id":"ee_xavvy_M_EST_21538","country":"EE","name":"CIRCLE K","brand":"CIRCLE K","address":"Papiniidu 17","city":"Pärnu Linn","lat":58.371767,"lon":24.549173,"source":"anwb.nl (ANWB POI API)","confidence":0.85,"prices":[{"fuel_type":"E10","price":1.9,"currency":"EUR","unit":"L","updated_at":"2026-06-20T10:15:52.516671+00:00"},{"fuel_type":"DIESEL","price":1.755,"currency":"EUR","unit":"L","updated_at":"2026-06-20T10:15:52.516671+00:00"}]},{"id":"ee_xavvy_M_EST_21539","country":"EE","name":"CIRCLE K","brand":"CIRCLE K","address":"Hommiku 2","city":"Pärnu Linn","lat":58.386492,"lon":24.503562,"source":"anwb.nl (ANWB POI API)","confidence":0.85,"prices":[{"fuel_type":"E10","price":1.399,"currency":"EUR","unit":"L","updated_at":"2026-06-20T10:15:52.516671+00:00"},{"fuel_type":"DIESEL","price":2.048,"currency":"EUR","unit":"L","updated_at":"2026-06-20T10:15:52.516671+00:00"}]},{"id":"ee_xavvy_M_EST_21540","country":"EE","name":"CIRCLE K","brand":"CIRCLE K","address":"Petrooleumi 4","city":"Tallinn","lat":59.440448,"lon":24.77656,"source":"anwb.nl (ANWB POI API)","confidence":0.85,"prices":[{"fuel_type":"E10","price":1.799,"currency":"EUR","unit":"L","updated_at":"2026-06-20T10:15:52.516671+00:00"},{"fuel_type":"DIESEL","price":1.819,"currency":"EUR","unit":"L","updated_at":"2026-06-20T10:15:52.516671+00:00"}]},{"id":"ee_xavvy_M_EST_21541","country":"EE","name":"CIRCLE K","brand":"CIRCLE K","address":"Peterburi Tee 58a","city":"Tallinn","lat":59.429341,"lon":24.837509,"source":"anwb.nl (ANWB POI API)","confidence":0.85,"prices":[{"fuel_type":"E10","price":1.745,"currency":"EUR","unit":"L","updated_at":"2026-06-20T10:15:52.516671+00:00"},{"fuel_type":"DIESEL","price":1.714,"currency":"EUR","unit":"L","updated_at":"2026-06-20T10:15:52.516671+00:00"}]},{"id":"ee_xavvy_M_EST_21542","country":"EE","name":"CIRCLE K","brand":"CIRCLE K","address":"Kütuse Tn 18a","city":"Rakvere Linn","lat":59.355013,"lon":26.388053,"source":"anwb.nl (ANWB POI API)","confidence":0.85,"prices":[{"fuel_type":"E10","price":1.799,"currency":"EUR","unit":"L","updated_at":"2026-06-20T10:15:52.516671+00:00"},{"fuel_type":"DIESEL","price":1.819,"currency":"EUR","unit":"L","updated_at":"2026-06-20T10:15:52.516671+00:00"}]},{"id":"ee_xavvy_M_EST_21543","country":"EE","name":"CIRCLE K","brand":"CIRCLE K","address":"Männiku Tee 2","city":"Tallinn","lat":59.391881,"lon":24.721552,"source":"anwb.nl (ANWB POI API)","confidence":0.85,"prices":[{"fuel_type":"E10","price":1.88,"currency":"EUR","unit":"L","updated_at":"2026-06-20T10:15:52.516671+00:00"},{"fuel_type":"DIESEL","price":1.755,"currency":"EUR","unit":"L","updated_at":"2026-06-20T10:15:52.516671+00:00"}]},{"id":"ee_xavvy_M_EST_21544","country":"EE","name":"CIRCLE K","brand":"CIRCLE K","address":"Tallinna Mnt 64","city":"Narva","lat":59.38412,"lon":28.15703,"source":"anwb.nl (ANWB POI API)","confidence":0.85,"prices":[{"fuel_type":"E10","price":1.928,"currency":"EUR","unit":"L","updated_at":"2026-06-20T10:15:52.516671+00:00"},{"fuel_type":"DIESEL","price":1.864,"currency":"EUR","unit":"L","updated_at":"2026-06-20T10:15:52.516671+00:00"}]},{"id":"ee_xavvy_M_EST_21545","country":"EE","name":"CIRCLE K","brand":"CIRCLE K","address":"Tallinna Mnt 37","city":"Narva","lat":59.380348,"lon":28.177285,"source":"anwb.nl (ANWB POI API)","confidence":0.85,"prices":[{"fuel_type":"E10","price":1.519,"currency":"EUR","unit":"L","updated_at":"2026-06-20T10:15:52.516671+00:00"},{"fuel_type":"DIESEL","price":2.079,"currency":"EUR","unit":"L","updated_at":"2026-06-20T10:15:52.516671+00:00"}]},{"id":"ee_xavvy_M_EST_21546","country":"EE","name":"CIRCLE K","brand":"CIRCLE K","address":"Orgita Kla","city":"Orgita Küla","lat":58.921108,"lon":24.457536,"source":"anwb.nl (ANWB POI API)","confidence":0.85,"prices":[{"fuel_type":"E10","price":1.839,"currency":"EUR","unit":"L","updated_at":"2026-06-20T10:15:52.516671+00:00"},{"fuel_type":"DIESEL","price":1.714,"currency":"EUR","unit":"L","updated_at":"2026-06-20T10:15:52.516671+00:00"}]},{"id":"ee_xavvy_M_EST_21547","country":"EE","name":"CIRCLE K","brand":"CIRCLE K","address":"Uus-Narva Mnt 5","city":"Mustvee","lat":58.850727,"lon":26.912824,"source":"anwb.nl (ANWB POI API)","confidence":0.85,"prices":[{"fuel_type":"E10","price":1.849,"currency":"EUR","unit":"L","updated_at":"2026-06-20T10:15:52.516671+00:00"},{"fuel_type":"DIESEL","price":1.849,"currency":"EUR","unit":"L","updated_at":"2026-06-20T10:15:52.516671+00:00"}]},{"id":"ee_xavvy_M_EST_21548","country":"EE","name":"CIRCLE K","brand":"CIRCLE K","address":"A. H. Tammsaare Tee 76","city":"Tallinn","lat":59.405636,"lon":24.700045,"source":"anwb.nl (ANWB POI API)","confidence":0.85,"prices":[{"fuel_type":"E10","price":1.699,"currency":"EUR","unit":"L","updated_at":"2026-06-20T10:15:52.516671+00:00"},{"fuel_type":"DIESEL","price":1.949,"currency":"EUR","unit":"L","updated_at":"2026-06-20T10:15:52.516671+00:00"}]},{"id":"ee_xavvy_M_EST_21549","country":"EE","name":"CIRCLE K","brand":"CIRCLE K","address":"Mahtra 29","city":"Tallinn","lat":59.442437,"lon":24.875338,"source":"anwb.nl (ANWB POI API)","confidence":0.85,"prices":[{"fuel_type":"E10","price":1.738,"currency":"EUR","unit":"L","updated_at":"2026-06-20T10:15:52.516671+00:00"},{"fuel_type":"DIESEL","price":1.819,"currency":"EUR","unit":"L","updated_at":"2026-06-20T10:15:52.516671+00:00"}]},{"id":"ee_xavvy_M_EST_21550","country":"EE","name":"CIRCLE K","brand":"CIRCLE K","address":"Põhja Pst 33","city":"Tallinn","lat":59.4442,"lon":24.752376,"source":"anwb.nl (ANWB POI API)","confidence":0.85,"prices":[{"fuel_type":"DIESEL","price":1.819,"currency":"EUR","unit":"L","updated_at":"2026-06-20T10:15:52.516671+00:00"},{"fuel_type":"E10","price":1.745,"currency":"EUR","unit":"L","updated_at":"2026-06-20T10:15:52.516671+00:00"}]},{"id":"ee_xavvy_M_EST_21551","country":"EE","name":"CIRCLE K","brand":"CIRCLE K","address":"Pärnu Mnt 552b","city":"Tallinn","lat":59.354487,"lon":24.628507,"source":"anwb.nl (ANWB POI API)","confidence":0.85,"prices":[{"fuel_type":"E10","price":1.769,"currency":"EUR","unit":"L","updated_at":"2026-06-20T10:15:52.516671+00:00"},{"fuel_type":"DIESEL","price":1.714,"currency":"EUR","unit":"L","updated_at":"2026-06-20T10:15:52.516671+00:00"}]},{"id":"ee_xavvy_M_EST_21552","country":"EE","name":"CIRCLE K","brand":"CIRCLE K","address":"Endla 43","city":"Tallinn","lat":59.427541,"lon":24.724054,"source":"anwb.nl (ANWB POI API)","confidence":0.85,"prices":[{"fuel_type":"DIESEL","price":1.939,"currency":"EUR","unit":"L","updated_at":"2026-06-20T10:15:52.516671+00:00"},{"fuel_type":"E10","price":1.758,"currency":"EUR","unit":"L","updated_at":"2026-06-20T10:15:52.516671+00:00"}]},{"id":"ee_xavvy_M_EST_2211418","country":"EE","name":"OLEREX","brand":"OLEREX","address":"Tartu 17","city":"Ahja","lat":58.206151,"lon":27.074207,"source":"anwb.nl (ANWB POI API)","confidence":0.85,"prices":[{"fuel_type":"E10","price":1.629,"currency":"EUR","unit":"L","updated_at":"2026-06-20T10:15:52.516671+00:00"},{"fuel_type":"E5","price":1.679,"currency":"EUR","unit":"L","updated_at":"2026-06-20T10:15:52.516671+00:00"},{"fuel_type":"DIESEL","price":1.685,"currency":"EUR","unit":"L","updated_at":"2026-06-20T10:15:52.516671+00:00"}]},{"id":"ee_xavvy_M_EST_2211483","country":"EE","name":"OLEREX","brand":"OLEREX","address":"Paldiski 150","city":"Harkujarve","lat":59.40725,"lon":24.617844,"source":"anwb.nl (ANWB POI API)","confidence":0.85,"prices":[{"fuel_type":"E10","price":1.549,"currency":"EUR","unit":"L","updated_at":"2026-06-20T10:15:52.516671+00:00"},{"fuel_type":"E5","price":1.599,"currency":"EUR","unit":"L","updated_at":"2026-06-20T10:15:52.516671+00:00"},{"fuel_type":"DIESEL","price":1.685,"currency":"EUR","unit":"L","updated_at":"2026-06-20T10:15:52.516671+00:00"}]},{"id":"ee_xavvy_M_EST_2211538","country":"EE","name":"OLEREX","brand":"OLEREX","address":"Paate 2","city":"Kukruse","lat":59.400466,"lon":27.336684,"source":"anwb.nl (ANWB POI API)","confidence":0.85,"prices":[{"fuel_type":"DIESEL","price":1.685,"currency":"EUR","unit":"L","updated_at":"2026-06-20T10:15:52.516671+00:00"}]},{"id":"ee_xavvy_M_EST_2211539","country":"EE","name":"OLEREX","brand":"OLEREX","address":"Selja 7","city":"Kunda","lat":59.495777,"lon":26.516621,"source":"anwb.nl (ANWB POI API)","confidence":0.85,"prices":[{"fuel_type":"DIESEL","price":1.685,"currency":"EUR","unit":"L","updated_at":"2026-06-20T10:15:52.516671+00:00"}]},{"id":"ee_xavvy_M_EST_2211559","country":"EE","name":"OLEREX","brand":"OLEREX","address":"Parnu - Rakvere, 175 Km 5","city":"Maetaguse","lat":59.320152,"lon":26.36977,"source":"anwb.nl (ANWB POI API)","confidence":0.85,"prices":[{"fuel_type":"E10","price":1.45,"currency":"EUR","unit":"L","updated_at":"2026-06-20T10:15:52.516671+00:00"},{"fuel_type":"E5","price":1.5,"currency":"EUR","unit":"L","updated_at":"2026-06-20T10:15:52.516671+00:00"},{"fuel_type":"DIESEL","price":1.685,"currency":"EUR","unit":"L","updated_at":"2026-06-20T10:15:52.516671+00:00"}]},{"id":"ee_xavvy_M_EST_2211582","country":"EE","name":"OLEREX","brand":"OLEREX","address":"Eerikaru 2","city":"Mustivere","lat":58.37209,"lon":25.563567,"source":"anwb.nl (ANWB POI API)","confidence":0.85,"prices":[{"fuel_type":"DIESEL","price":1.685,"currency":"EUR","unit":"L","updated_at":"2026-06-20T10:15:52.516671+00:00"}]},{"id":"ee_xavvy_M_EST_2211585","country":"EE","name":"OLEREX","brand":"OLEREX","address":"Tallinna 73","city":"Narva","lat":59.384934,"lon":28.15814,"source":"anwb.nl (ANWB POI API)","confidence":0.85,"prices":[{"fuel_type":"E10","price":1.649,"currency":"EUR","unit":"L","updated_at":"2026-06-20T10:15:52.516671+00:00"},{"fuel_type":"E5","price":1.699,"currency":"EUR","unit":"L","updated_at":"2026-06-20T10:15:52.516671+00:00"},{"fuel_type":"DIESEL","price":1.685,"currency":"EUR","unit":"L","updated_at":"2026-06-20T10:15:52.516671+00:00"}]},{"id":"ee_xavvy_M_EST_2211602","country":"EE","name":"OLEREX","brand":"OLEREX","address":"Mai 6","city":"Parnu","lat":58.370826,"lon":24.537715,"source":"anwb.nl (ANWB POI API)","confidence":0.85,"prices":[{"fuel_type":"DIESEL","price":1.685,"currency":"EUR","unit":"L","updated_at":"2026-06-20T10:15:52.516671+00:00"}]},{"id":"ee_xavvy_M_EST_2211675","country":"EE","name":"OLEREX","brand":"OLEREX","address":"Linnu 64","city":"Tallinn","lat":59.412904,"lon":24.708722,"source":"anwb.nl (ANWB POI API)","confidence":0.85,"prices":[{"fuel_type":"E10","price":1.799,"currency":"EUR","unit":"L","updated_at":"2026-06-20T10:15:52.516671+00:00"},{"fuel_type":"DIESEL","price":1.685,"currency":"EUR","unit":"L","updated_at":"2026-06-20T10:15:52.516671+00:00"}]},{"id":"ee_xavvy_M_EST_2211681","country":"EE","name":"OLEREX","brand":"OLEREX","address":"Tammsaare 53a","city":"Tallinn","lat":59.401909,"lon":24.710002,"source":"anwb.nl (ANWB POI API)","confidence":0.85,"prices":[{"fuel_type":"DIESEL","price":1.685,"currency":"EUR","unit":"L","updated_at":"2026-06-20T10:15:52.516671+00:00"}]},{"id":"ee_xavvy_M_EST_2211687","country":"EE","name":"OLEREX","brand":"OLEREX","address":"Ringtee 28","city":"Tartu","lat":58.343353,"lon":26.737413,"source":"anwb.nl (ANWB POI API)","confidence":0.85,"prices":[{"fuel_type":"DIESEL","price":1.685,"currency":"EUR","unit":"L","updated_at":"2026-06-20T10:15:52.516671+00:00"}]},{"id":"ee_xavvy_M_EST_2211691","country":"EE","name":"OLEREX","brand":"OLEREX","address":"Haljala 17","city":"Torramae","lat":59.361991,"lon":26.334642,"source":"anwb.nl (ANWB POI API)","confidence":0.85,"prices":[{"fuel_type":"E5","price":1.614,"currency":"EUR","unit":"L","updated_at":"2026-06-20T10:15:52.516671+00:00"},{"fuel_type":"E10","price":1.435,"currency":"EUR","unit":"L","updated_at":"2026-06-20T10:15:52.516671+00:00"},{"fuel_type":"DIESEL","price":1.685,"currency":"EUR","unit":"L","updated_at":"2026-06-20T10:15:52.516671+00:00"}]},{"id":"ee_xavvy_M_EST_2211711","country":"EE","name":"OLEREX","brand":"OLEREX","address":"Tootmise 2","city":"Vastseliina","lat":57.731659,"lon":27.273561,"source":"anwb.nl (ANWB POI API)","confidence":0.85,"prices":[{"fuel_type":"DIESEL","price":1.685,"currency":"EUR","unit":"L","updated_at":"2026-06-20T10:15:52.516671+00:00"}]},{"id":"ee_xavvy_M_EST_2216044","country":"EE","name":"ALEXELA","brand":"ALEXELA","address":"Kelnase Sadam","city":"Kelnase Kula","lat":59.636038,"lon":25.007323,"source":"anwb.nl (ANWB POI API)","confidence":0.85,"prices":[{"fuel_type":"DIESEL","price":1.735,"currency":"EUR","unit":"L","updated_at":"2026-06-20T10:15:52.516671+00:00"}]},{"id":"ee_xavvy_M_EST_2216074","country":"EE","name":"ALEXELA","brand":"ALEXELA","address":"Parnu Mnt 534","city":"Tallinn","lat":59.359496,"lon":24.629635,"source":"anwb.nl (ANWB POI API)","confidence":0.85,"prices":[{"fuel_type":"E5","price":1.628,"currency":"EUR","unit":"L","updated_at":"2026-06-20T10:15:52.516671+00:00"},{"fuel_type":"E10","price":1.698,"currency":"EUR","unit":"L","updated_at":"2026-06-20T10:15:52.516671+00:00"},{"fuel_type":"CNG","price":1.527,"currency":"EUR","unit":"kg","updated_at":"2026-06-20T10:15:52.516671+00:00"},{"fuel_type":"DIESEL","price":1.735,"currency":"EUR","unit":"L","updated_at":"2026-06-20T10:15:52.516671+00:00"}]},{"id":"ee_xavvy_M_EST_2216075","country":"EE","name":"ALEXELA","brand":"ALEXELA","address":"Kaare Tee 2","city":"Imavere","lat":58.737429,"lon":25.770688,"source":"anwb.nl (ANWB POI API)","confidence":0.85,"prices":[{"fuel_type":"E10","price":1.729,"currency":"EUR","unit":"L","updated_at":"2026-06-20T10:15:52.516671+00:00"},{"fuel_type":"DIESEL","price":1.735,"currency":"EUR","unit":"L","updated_at":"2026-06-20T10:15:52.516671+00:00"}]},{"id":"ee_xavvy_M_EST_223755","country":"EE","name":"CIRCLE K","brand":"CIRCLE K","address":"Tallinna Mnt 8","city":"Adavere Alevik","lat":58.705417,"lon":25.899694,"source":"anwb.nl (ANWB POI API)","confidence":0.85,"prices":[{"fuel_type":"E10","price":1.889,"currency":"EUR","unit":"L","updated_at":"2026-06-20T10:15:52.516671+00:00"},{"fuel_type":"DIESEL","price":1.755,"currency":"EUR","unit":"L","updated_at":"2026-06-20T10:15:52.516671+00:00"}]},{"id":"ee_xavvy_M_EST_23673","country":"EE","name":"CIRCLE K","brand":"CIRCLE K","address":"Ristmiku Kinnistu, Mao Kula,","city":"Mäo Küla","lat":58.918354,"lon":25.610784,"source":"anwb.nl (ANWB POI API)","confidence":0.85,"prices":[{"fuel_type":"DIESEL","price":1.844,"currency":"EUR","unit":"L","updated_at":"2026-06-20T10:15:52.516671+00:00"},{"fuel_type":"E10","price":1.733,"currency":"EUR","unit":"L","updated_at":"2026-06-20T10:15:52.516671+00:00"}]},{"id":"ee_xavvy_M_EST_24133","country":"EE","name":"KROONING","brand":"KROONING","address":"Kernu","city":"Harjumaa","lat":59.153942,"lon":24.504112,"source":"anwb.nl (ANWB POI API)","confidence":0.85,"prices":[{"fuel_type":"DIESEL","price":1.678,"currency":"EUR","unit":"L","updated_at":"2026-06-20T10:15:52.516671+00:00"}]},{"id":"ee_xavvy_M_EST_2413409","country":"EE","name":"ALEXELA","brand":"ALEXELA","address":"Parnu Mnt 556a","city":"Laagri","lat":59.342957,"lon":24.616595,"source":"anwb.nl (ANWB POI API)","confidence":0.85,"prices":[{"fuel_type":"E5","price":1.519,"currency":"EUR","unit":"L","updated_at":"2026-06-20T10:15:52.516671+00:00"},{"fuel_type":"E10","price":1.679,"currency":"EUR","unit":"L","updated_at":"2026-06-20T10:15:52.516671+00:00"},{"fuel_type":"DIESEL","price":1.735,"currency":"EUR","unit":"L","updated_at":"2026-06-20T10:15:52.516671+00:00"}]},{"id":"ee_xavvy_M_EST_2413416","country":"EE","name":"ALEXELA","brand":"ALEXELA","address":"Hullo Kula","city":"Hullo Kula","lat":58.98849,"lon":23.246816,"source":"anwb.nl (ANWB POI API)","confidence":0.85,"prices":[{"fuel_type":"DIESEL","price":1.735,"currency":"EUR","unit":"L","updated_at":"2026-06-20T10:15:52.516671+00:00"}]},{"id":"ee_xavvy_M_EST_2413458","country":"EE","name":"ALEXELA","brand":"ALEXELA","address":"Eisma Sadam","city":"Eisma Kula","lat":59.568016,"lon":26.299121,"source":"anwb.nl (ANWB POI API)","confidence":0.85,"prices":[{"fuel_type":"DIESEL","price":1.735,"currency":"EUR","unit":"L","updated_at":"2026-06-20T10:15:52.516671+00:00"}]},{"id":"ee_xavvy_M_EST_2507131","country":"EE","name":"TERMINAL","brand":"TERMINAL","address":"Raudtee 2a, Nõo","city":"Tartu Maakond","lat":58.28185,"lon":26.52874,"source":"anwb.nl (ANWB POI API)","confidence":0.85,"prices":[{"fuel_type":"E10","price":1.498,"currency":"EUR","unit":"L","updated_at":"2026-06-20T10:15:52.516671+00:00"},{"fuel_type":"E5","price":1.548,"currency":"EUR","unit":"L","updated_at":"2026-06-20T10:15:52.516671+00:00"},{"fuel_type":"DIESEL","price":1.652,"currency":"EUR","unit":"L","updated_at":"2026-06-20T10:15:52.516671+00:00"}]},{"id":"ee_xavvy_M_EST_2512484","country":"EE","name":"ALEXELA","brand":"ALEXELA","address":"Paldiski Mnt 116b","city":"Tallinn","lat":59.419123,"lon":24.637769,"source":"anwb.nl (ANWB POI API)","confidence":0.85,"prices":[{"fuel_type":"E10","price":1.459,"currency":"EUR","unit":"L","updated_at":"2026-06-20T10:15:52.516671+00:00"},{"fuel_type":"E5","price":1.509,"currency":"EUR","unit":"L","updated_at":"2026-06-20T10:15:52.516671+00:00"},{"fuel_type":"DIESEL","price":1.735,"currency":"EUR","unit":"L","updated_at":"2026-06-20T10:15:52.516671+00:00"}]},{"id":"ee_xavvy_M_EST_2512510","country":"EE","name":"ALEXELA","brand":"ALEXELA","address":"Kutuse 18","city":"Rakvere","lat":59.35488,"lon":26.390142,"source":"anwb.nl (ANWB POI API)","confidence":0.85,"prices":[{"fuel_type":"DIESEL","price":1.735,"currency":"EUR","unit":"L","updated_at":"2026-06-20T10:15:52.516671+00:00"}]},{"id":"ee_xavvy_M_EST_2512530","country":"EE","name":"ALEXELA","brand":"ALEXELA","address":"Ringtee 25","city":"Tartu","lat":58.341113,"lon":26.723665,"source":"anwb.nl (ANWB POI API)","confidence":0.85,"prices":[{"fuel_type":"E10","price":1.784,"currency":"EUR","unit":"L","updated_at":"2026-06-20T10:15:52.516671+00:00"},{"fuel_type":"DIESEL","price":1.735,"currency":"EUR","unit":"L","updated_at":"2026-06-20T10:15:52.516671+00:00"}]},{"id":"ee_xavvy_M_EST_2779741","country":"EE","name":"TERMINAL","brand":"TERMINAL","address":"Kalda Tee 43b","city":"Tartu","lat":58.368119,"lon":26.767797,"source":"anwb.nl (ANWB POI API)","confidence":0.85,"prices":[{"fuel_type":"E5","price":1.502,"currency":"EUR","unit":"L","updated_at":"2026-06-20T10:15:52.516671+00:00"},{"fuel_type":"E10","price":1.452,"currency":"EUR","unit":"L","updated_at":"2026-06-20T10:15:52.516671+00:00"},{"fuel_type":"DIESEL","price":1.672,"currency":"EUR","unit":"L","updated_at":"2026-06-20T10:15:52.516671+00:00"}]},{"id":"ee_xavvy_M_EST_2779742","country":"EE","name":"TERMINAL","brand":"TERMINAL","address":"Lehmja, Juri Village","city":"Lehmja","lat":59.360502,"lon":24.869462,"source":"anwb.nl (ANWB POI API)","confidence":0.85,"prices":[{"fuel_type":"E5","price":1.502,"currency":"EUR","unit":"L","updated_at":"2026-06-20T10:15:52.516671+00:00"},{"fuel_type":"E10","price":1.689,"currency":"EUR","unit":"L","updated_at":"2026-06-20T10:15:52.516671+00:00"},{"fuel_type":"DIESEL","price":1.672,"currency":"EUR","unit":"L","updated_at":"2026-06-20T10:15:52.516671+00:00"}]},{"id":"ee_xavvy_M_EST_2780040","country":"EE","name":"TERMINAL","brand":"TERMINAL","address":"Ikla Village","city":"Ikla","lat":57.87578,"lon":24.382975,"source":"anwb.nl (ANWB POI API)","confidence":0.85,"prices":[{"fuel_type":"DIESEL","price":1.672,"currency":"EUR","unit":"L","updated_at":"2026-06-20T10:15:52.516671+00:00"}]},{"id":"ee_xavvy_M_EST_2780041","country":"EE","name":"TERMINAL","brand":"TERMINAL","address":"Rapina Road 11","city":"Võru","lat":57.844307,"lon":27.018961,"source":"anwb.nl (ANWB POI API)","confidence":0.85,"prices":[{"fuel_type":"E5","price":1.502,"currency":"EUR","unit":"L","updated_at":"2026-06-20T10:15:52.516671+00:00"},{"fuel_type":"E10","price":1.452,"currency":"EUR","unit":"L","updated_at":"2026-06-20T10:15:52.516671+00:00"},{"fuel_type":"DIESEL","price":1.672,"currency":"EUR","unit":"L","updated_at":"2026-06-20T10:15:52.516671+00:00"}]},{"id":"ee_xavvy_M_EST_2780480","country":"EE","name":"TERMINAL","brand":"TERMINAL","address":"Karkna Village","city":"Kärkna","lat":58.460065,"lon":26.654195,"source":"anwb.nl (ANWB POI API)","confidence":0.85,"prices":[{"fuel_type":"E5","price":1.502,"currency":"EUR","unit":"L","updated_at":"2026-06-20T10:15:52.516671+00:00"},{"fuel_type":"E10","price":1.745,"currency":"EUR","unit":"L","updated_at":"2026-06-20T10:15:52.516671+00:00"},{"fuel_type":"DIESEL","price":1.672,"currency":"EUR","unit":"L","updated_at":"2026-06-20T10:15:52.516671+00:00"}]},{"id":"ee_xavvy_M_EST_2780481","country":"EE","name":"TERMINAL","brand":"TERMINAL","address":"Kauba Road, Torvandi Village 4","city":"Kambja","lat":58.321836,"lon":26.713042,"source":"anwb.nl (ANWB POI API)","confidence":0.85,"prices":[{"fuel_type":"E5","price":1.502,"currency":"EUR","unit":"L","updated_at":"2026-06-20T10:15:52.516671+00:00"},{"fuel_type":"E10","price":1.949,"currency":"EUR","unit":"L","updated_at":"2026-06-20T10:15:52.516671+00:00"},{"fuel_type":"DIESEL","price":1.672,"currency":"EUR","unit":"L","updated_at":"2026-06-20T10:15:52.516671+00:00"}]},{"id":"ee_xavvy_M_EST_2780482","country":"EE","name":"TERMINAL","brand":"TERMINAL","address":"Jaama 71b","city":"Polva","lat":58.071045,"lon":27.083504,"source":"anwb.nl (ANWB POI API)","confidence":0.85,"prices":[{"fuel_type":"E5","price":1.502,"currency":"EUR","unit":"L","updated_at":"2026-06-20T10:15:52.516671+00:00"},{"fuel_type":"E10","price":1.452,"currency":"EUR","unit":"L","updated_at":"2026-06-20T10:15:52.516671+00:00"},{"fuel_type":"DIESEL","price":1.672,"currency":"EUR","unit":"L","updated_at":"2026-06-20T10:15:52.516671+00:00"}]},{"id":"ee_xavvy_M_EST_2780483","country":"EE","name":"TERMINAL","brand":"TERMINAL","address":"Rebase 18a","city":"Tartu","lat":58.36858,"lon":26.745261,"source":"anwb.nl (ANWB POI API)","confidence":0.85,"prices":[{"fuel_type":"E5","price":1.502,"currency":"EUR","unit":"L","updated_at":"2026-06-20T10:15:52.516671+00:00"},{"fuel_type":"E10","price":1.724,"currency":"EUR","unit":"L","updated_at":"2026-06-20T10:15:52.516671+00:00"},{"fuel_type":"DIESEL","price":1.672,"currency":"EUR","unit":"L","updated_at":"2026-06-20T10:15:52.516671+00:00"}]},{"id":"ee_xavvy_M_EST_2780484","country":"EE","name":"TERMINAL","brand":"TERMINAL","address":"Peetri Tee 1","city":"Kuningamäe Küla","lat":58.65241,"lon":25.949836,"source":"anwb.nl (ANWB POI API)","confidence":0.85,"prices":[{"fuel_type":"E5","price":1.502,"currency":"EUR","unit":"L","updated_at":"2026-06-20T10:15:52.516671+00:00"},{"fuel_type":"E10","price":1.452,"currency":"EUR","unit":"L","updated_at":"2026-06-20T10:15:52.516671+00:00"},{"fuel_type":"DIESEL","price":1.672,"currency":"EUR","unit":"L","updated_at":"2026-06-20T10:15:52.516671+00:00"}]},{"id":"ee_xavvy_M_EST_2780485","country":"EE","name":"TERMINAL","brand":"TERMINAL","address":"Jaama 173a","city":"Tartu","lat":58.379666,"lon":26.766043,"source":"anwb.nl (ANWB POI API)","confidence":0.85,"prices":[{"fuel_type":"E5","price":1.502,"currency":"EUR","unit":"L","updated_at":"2026-06-20T10:15:52.516671+00:00"},{"fuel_type":"E10","price":1.452,"currency":"EUR","unit":"L","updated_at":"2026-06-20T10:15:52.516671+00:00"},{"fuel_type":"DIESEL","price":1.672,"currency":"EUR","unit":"L","updated_at":"2026-06-20T10:15:52.516671+00:00"}]},{"id":"ee_xavvy_M_EST_2780486","country":"EE","name":"TERMINAL","brand":"TERMINAL","address":"Tartu Road, Torma Village 14","city":"Torma","lat":58.816613,"lon":26.742541,"source":"anwb.nl (ANWB POI API)","confidence":0.85,"prices":[{"fuel_type":"E5","price":1.502,"currency":"EUR","unit":"L","updated_at":"2026-06-20T10:15:52.516671+00:00"},{"fuel_type":"E10","price":1.839,"currency":"EUR","unit":"L","updated_at":"2026-06-20T10:15:52.516671+00:00"},{"fuel_type":"DIESEL","price":1.672,"currency":"EUR","unit":"L","updated_at":"2026-06-20T10:15:52.516671+00:00"}]},{"id":"ee_xavvy_M_EST_2780487","country":"EE","name":"TERMINAL","brand":"TERMINAL","address":"Teeristi, Saverna Village","city":"Saverna","lat":58.066667,"lon":26.730632,"source":"anwb.nl (ANWB POI API)","confidence":0.85,"prices":[{"fuel_type":"E5","price":1.502,"currency":"EUR","unit":"L","updated_at":"2026-06-20T10:15:52.516671+00:00"},{"fuel_type":"E10","price":1.839,"currency":"EUR","unit":"L","updated_at":"2026-06-20T10:15:52.516671+00:00"},{"fuel_type":"DIESEL","price":1.672,"currency":"EUR","unit":"L","updated_at":"2026-06-20T10:15:52.516671+00:00"}]},{"id":"ee_xavvy_M_EST_2780488","country":"EE","name":"TERMINAL","brand":"TERMINAL","address":"Raudtee, Noo Village 2 A","city":"Noo","lat":58.281818,"lon":26.527112,"source":"anwb.nl (ANWB POI API)","confidence":0.85,"prices":[{"fuel_type":"E5","price":1.569,"currency":"EUR","unit":"L","updated_at":"2026-06-20T10:15:52.516671+00:00"},{"fuel_type":"E10","price":1.689,"currency":"EUR","unit":"L","updated_at":"2026-06-20T10:15:52.516671+00:00"},{"fuel_type":"DIESEL","price":1.672,"currency":"EUR","unit":"L","updated_at":"2026-06-20T10:15:52.516671+00:00"}]},{"id":"ee_xavvy_M_EST_2780489","country":"EE","name":"TERMINAL","brand":"TERMINAL","address":"Vana-Narva Road, Kiiu Village 7","city":"Kuusalu Province","lat":59.452424,"lon":25.385166,"source":"anwb.nl (ANWB POI API)","confidence":0.85,"prices":[{"fuel_type":"E5","price":1.502,"currency":"EUR","unit":"L","updated_at":"2026-06-20T10:15:52.516671+00:00"},{"fuel_type":"E10","price":1.769,"currency":"EUR","unit":"L","updated_at":"2026-06-20T10:15:52.516671+00:00"},{"fuel_type":"DIESEL","price":1.672,"currency":"EUR","unit":"L","updated_at":"2026-06-20T10:15:52.516671+00:00"}]},{"id":"ee_xavvy_M_EST_2780490","country":"EE","name":"TERMINAL","brand":"TERMINAL","address":"Transpordi 1","city":"Valga","lat":57.792331,"lon":26.038821,"source":"anwb.nl (ANWB POI API)","confidence":0.85,"prices":[{"fuel_type":"E5","price":1.639,"currency":"EUR","unit":"L","updated_at":"2026-06-20T10:15:52.516671+00:00"},{"fuel_type":"E10","price":1.709,"currency":"EUR","unit":"L","updated_at":"2026-06-20T10:15:52.516671+00:00"},{"fuel_type":"DIESEL","price":1.672,"currency":"EUR","unit":"L","updated_at":"2026-06-20T10:15:52.516671+00:00"}]},{"id":"ee_xavvy_M_EST_2780491","country":"EE","name":"TERMINAL","brand":"TERMINAL","address":"Kevili, Rongu Village","city":"Tartu Maakond","lat":58.147405,"lon":26.230111,"source":"anwb.nl (ANWB POI API)","confidence":0.85,"prices":[{"fuel_type":"DIESEL","price":1.672,"currency":"EUR","unit":"L","updated_at":"2026-06-20T10:15:52.516671+00:00"}]},{"id":"ee_xavvy_M_EST_2780492","country":"EE","name":"TERMINAL","brand":"TERMINAL","address":"Parnuvalja 3","city":"Paide","lat":58.879384,"lon":25.534577,"source":"anwb.nl (ANWB POI API)","confidence":0.85,"prices":[{"fuel_type":"DIESEL","price":1.672,"currency":"EUR","unit":"L","updated_at":"2026-06-20T10:15:52.516671+00:00"}]},{"id":"ee_xavvy_M_EST_2780493","country":"EE","name":"TERMINAL","brand":"TERMINAL","address":"Toostuse, Someru Village 4","city":"Someru","lat":59.356958,"lon":26.434738,"source":"anwb.nl (ANWB POI API)","confidence":0.85,"prices":[{"fuel_type":"DIESEL","price":1.672,"currency":"EUR","unit":"L","updated_at":"2026-06-20T10:15:52.516671+00:00"}]},{"id":"ee_xavvy_M_EST_2780506","country":"EE","name":"TERMINAL","brand":"TERMINAL","address":"Nolvakaare Road, Tila Village 2","city":"Tartu Province","lat":58.407692,"lon":26.74966,"source":"anwb.nl (ANWB POI API)","confidence":0.85,"prices":[{"fuel_type":"E5","price":1.502,"currency":"EUR","unit":"L","updated_at":"2026-06-20T10:15:52.516671+00:00"},{"fuel_type":"E10","price":1.738,"currency":"EUR","unit":"L","updated_at":"2026-06-20T10:15:52.516671+00:00"},{"fuel_type":"DIESEL","price":1.672,"currency":"EUR","unit":"L","updated_at":"2026-06-20T10:15:52.516671+00:00"}]},{"id":"ee_xavvy_M_EST_2809554","country":"EE","name":"TERMINAL","brand":"TERMINAL","address":"J. Poska 26","city":"Narva-Joesuu","lat":59.462916,"lon":28.043846,"source":"anwb.nl (ANWB POI API)","confidence":0.85,"prices":[{"fuel_type":"E5","price":1.502,"currency":"EUR","unit":"L","updated_at":"2026-06-20T10:15:52.516671+00:00"},{"fuel_type":"E10","price":1.749,"currency":"EUR","unit":"L","updated_at":"2026-06-20T10:15:52.516671+00:00"},{"fuel_type":"DIESEL","price":1.672,"currency":"EUR","unit":"L","updated_at":"2026-06-20T10:15:52.516671+00:00"}]},{"id":"ee_xavvy_M_EST_2809555","country":"EE","name":"TERMINAL","brand":"TERMINAL","address":"Vru Mnt 1","city":"Rõngu","lat":58.142247,"lon":26.248564,"source":"anwb.nl (ANWB POI API)","confidence":0.85,"prices":[{"fuel_type":"E5","price":1.502,"currency":"EUR","unit":"L","updated_at":"2026-06-20T10:15:52.516671+00:00"},{"fuel_type":"E10","price":1.452,"currency":"EUR","unit":"L","updated_at":"2026-06-20T10:15:52.516671+00:00"},{"fuel_type":"DIESEL","price":1.672,"currency":"EUR","unit":"L","updated_at":"2026-06-20T10:15:52.516671+00:00"}]},{"id":"ee_xavvy_M_EST_3078658","country":"EE","name":"TERMINAL","brand":"TERMINAL","address":"Osmussaare Str. 15","city":"Tallinn","lat":59.43727,"lon":24.87029,"source":"anwb.nl (ANWB POI API)","confidence":0.85,"prices":[{"fuel_type":"E5","price":1.502,"currency":"EUR","unit":"L","updated_at":"2026-06-20T10:15:52.516671+00:00"},{"fuel_type":"E10","price":1.849,"currency":"EUR","unit":"L","updated_at":"2026-06-20T10:15:52.516671+00:00"},{"fuel_type":"DIESEL","price":1.672,"currency":"EUR","unit":"L","updated_at":"2026-06-20T10:15:52.516671+00:00"}]},{"id":"ee_xavvy_M_EST_3078659","country":"EE","name":"TERMINAL","brand":"TERMINAL","address":"Soometsa Tee 15a","city":"Uulu","lat":58.27545,"lon":24.57821,"source":"anwb.nl (ANWB POI API)","confidence":0.85,"prices":[{"fuel_type":"E5","price":1.502,"currency":"EUR","unit":"L","updated_at":"2026-06-20T10:15:52.516671+00:00"},{"fuel_type":"E10","price":1.819,"currency":"EUR","unit":"L","updated_at":"2026-06-20T10:15:52.516671+00:00"},{"fuel_type":"DIESEL","price":1.672,"currency":"EUR","unit":"L","updated_at":"2026-06-20T10:15:52.516671+00:00"}]},{"id":"ee_xavvy_M_EST_3154039","country":"EE","name":"ALEXELA","brand":"ALEXELA","address":"Raudtee 2","city":"Abja-Paluoja","lat":58.122904,"lon":25.352166,"source":"anwb.nl (ANWB POI API)","confidence":0.85,"prices":[{"fuel_type":"DIESEL","price":1.735,"currency":"EUR","unit":"L","updated_at":"2026-06-20T10:15:52.516671+00:00"}]},{"id":"ee_xavvy_M_EST_3154041","country":"EE","name":"ALEXELA","brand":"ALEXELA","address":"Ehitajate Tee 101","city":"Tallinn","lat":59.41191,"lon":24.66174,"source":"anwb.nl (ANWB POI API)","confidence":0.85,"prices":[{"fuel_type":"E10","price":1.5,"currency":"EUR","unit":"L","updated_at":"2026-06-20T10:15:52.516671+00:00"},{"fuel_type":"E5","price":1.55,"currency":"EUR","unit":"L","updated_at":"2026-06-20T10:15:52.516671+00:00"},{"fuel_type":"DIESEL","price":1.735,"currency":"EUR","unit":"L","updated_at":"2026-06-20T10:15:52.516671+00:00"}]},{"id":"ee_xavvy_M_EST_3154043","country":"EE","name":"ALEXELA","brand":"ALEXELA","address":"Kulbilohu 3","city":"Elva","lat":58.237955,"lon":26.418524,"source":"anwb.nl (ANWB POI API)","confidence":0.85,"prices":[{"fuel_type":"E5","price":1.609,"currency":"EUR","unit":"L","updated_at":"2026-06-20T10:15:52.516671+00:00"},{"fuel_type":"E10","price":1.564,"currency":"EUR","unit":"L","updated_at":"2026-06-20T10:15:52.516671+00:00"},{"fuel_type":"DIESEL","price":1.735,"currency":"EUR","unit":"L","updated_at":"2026-06-20T10:15:52.516671+00:00"}]},{"id":"ee_xavvy_M_EST_3154044","country":"EE","name":"ALEXELA","brand":"ALEXELA","address":"Emmaste Kula","city":"Emmaste Kula","lat":58.703846,"lon":22.588819,"source":"anwb.nl (ANWB POI API)","confidence":0.85,"prices":[{"fuel_type":"DIESEL","price":1.735,"currency":"EUR","unit":"L","updated_at":"2026-06-20T10:15:52.516671+00:00"}]},{"id":"ee_xavvy_M_EST_3154046","country":"EE","name":"ALEXELA","brand":"ALEXELA","address":"Randvere Tee 9a","city":"Haabneeme","lat":59.505693,"lon":24.827211,"source":"anwb.nl (ANWB POI API)","confidence":0.85,"prices":[{"fuel_type":"E5","price":1.502,"currency":"EUR","unit":"L","updated_at":"2026-06-20T10:15:52.516671+00:00"},{"fuel_type":"E10","price":1.755,"currency":"EUR","unit":"L","updated_at":"2026-06-20T10:15:52.516671+00:00"},{"fuel_type":"DIESEL","price":1.735,"currency":"EUR","unit":"L","updated_at":"2026-06-20T10:15:52.516671+00:00"}]},{"id":"ee_xavvy_M_EST_3154047","country":"EE","name":"ALEXELA","brand":"ALEXELA","address":"Tallinna Mnt 64","city":"Haapsalu","lat":58.936748,"lon":23.565309,"source":"anwb.nl (ANWB POI API)","confidence":0.85,"prices":[{"fuel_type":"E5","price":1.624,"currency":"EUR","unit":"L","updated_at":"2026-06-20T10:15:52.516671+00:00"},{"fuel_type":"E10","price":1.533,"currency":"EUR","unit":"L","updated_at":"2026-06-20T10:15:52.516671+00:00"},{"fuel_type":"DIESEL","price":1.735,"currency":"EUR","unit":"L","updated_at":"2026-06-20T10:15:52.516671+00:00"}]},{"id":"ee_xavvy_M_EST_3154049","country":"EE","name":"ALEXELA","brand":"ALEXELA","address":"Halinga Vald","city":"Loomse Kula","lat":58.595619,"lon":24.510138,"source":"anwb.nl (ANWB POI API)","confidence":0.85,"prices":[{"fuel_type":"E5","price":1.65,"currency":"EUR","unit":"L","updated_at":"2026-06-20T10:15:52.516671+00:00"},{"fuel_type":"E10","price":1.729,"currency":"EUR","unit":"L","updated_at":"2026-06-20T10:15:52.516671+00:00"},{"fuel_type":"DIESEL","price":1.735,"currency":"EUR","unit":"L","updated_at":"2026-06-20T10:15:52.516671+00:00"}]},{"id":"ee_xavvy_M_EST_3154052","country":"EE","name":"ALEXELA","brand":"ALEXELA","address":"Piiri 16 16","city":"Jogeva","lat":58.743124,"lon":26.386837,"source":"anwb.nl (ANWB POI API)","confidence":0.85,"prices":[{"fuel_type":"E10","price":1.509,"currency":"EUR","unit":"L","updated_at":"2026-06-20T10:15:52.516671+00:00"},{"fuel_type":"E5","price":1.559,"currency":"EUR","unit":"L","updated_at":"2026-06-20T10:15:52.516671+00:00"},{"fuel_type":"DIESEL","price":1.735,"currency":"EUR","unit":"L","updated_at":"2026-06-20T10:15:52.516671+00:00"}]},{"id":"ee_xavvy_M_EST_3154053","country":"EE","name":"ALEXELA","brand":"ALEXELA","address":"Jogeva Vald","city":"Ouna Kula","lat":58.744225,"lon":26.36287,"source":"anwb.nl (ANWB POI API)","confidence":0.85,"prices":[{"fuel_type":"E5","price":1.682,"currency":"EUR","unit":"L","updated_at":"2026-06-20T10:15:52.516671+00:00"},{"fuel_type":"E10","price":1.632,"currency":"EUR","unit":"L","updated_at":"2026-06-20T10:15:52.516671+00:00"},{"fuel_type":"DIESEL","price":1.735,"currency":"EUR","unit":"L","updated_at":"2026-06-20T10:15:52.516671+00:00"}]},{"id":"ee_xavvy_M_EST_3154054","country":"EE","name":"ALEXELA","brand":"ALEXELA","address":"Rakvere 44","city":"Johvi","lat":59.368038,"lon":27.392112,"source":"anwb.nl (ANWB POI API)","confidence":0.85,"prices":[{"fuel_type":"E5","price":1.564,"currency":"EUR","unit":"L","updated_at":"2026-06-20T10:15:52.516671+00:00"},{"fuel_type":"E10","price":1.719,"currency":"EUR","unit":"L","updated_at":"2026-06-20T10:15:52.516671+00:00"},{"fuel_type":"DIESEL","price":1.735,"currency":"EUR","unit":"L","updated_at":"2026-06-20T10:15:52.516671+00:00"}]},{"id":"ee_xavvy_M_EST_3154056","country":"EE","name":"ALEXELA","brand":"ALEXELA","address":"Porguvalja Tee 2","city":"Lehmja Kula","lat":59.359172,"lon":24.890113,"source":"anwb.nl (ANWB POI API)","confidence":0.85,"prices":[{"fuel_type":"E10","price":1.754,"currency":"EUR","unit":"L","updated_at":"2026-06-20T10:15:52.516671+00:00"},{"fuel_type":"DIESEL","price":1.735,"currency":"EUR","unit":"L","updated_at":"2026-06-20T10:15:52.516671+00:00"}]},{"id":"ee_xavvy_M_EST_3154058","country":"EE","name":"ALEXELA","brand":"ALEXELA","address":"Nooda Tee 8","city":"Tallinn","lat":59.450692,"lon":24.603785,"source":"anwb.nl (ANWB POI API)","confidence":0.85,"prices":[{"fuel_type":"DIESEL","price":1.735,"currency":"EUR","unit":"L","updated_at":"2026-06-20T10:15:52.516671+00:00"}]},{"id":"ee_xavvy_M_EST_3154060","country":"EE","name":"ALEXELA","brand":"ALEXELA","address":"Parnu Mnt 2","city":"Karksi-Nuia","lat":58.105243,"lon":25.546319,"source":"anwb.nl (ANWB POI API)","confidence":0.85,"prices":[{"fuel_type":"E10","price":1.481,"currency":"EUR","unit":"L","updated_at":"2026-06-20T10:15:52.516671+00:00"},{"fuel_type":"DIESEL","price":1.735,"currency":"EUR","unit":"L","updated_at":"2026-06-20T10:15:52.516671+00:00"}]},{"id":"ee_xavvy_M_EST_3154061","country":"EE","name":"ALEXELA","brand":"ALEXELA","address":"Ulejoe Tee 2c","city":"Keila","lat":59.310539,"lon":24.437277,"source":"anwb.nl (ANWB POI API)","confidence":0.85,"prices":[{"fuel_type":"E5","price":1.619,"currency":"EUR","unit":"L","updated_at":"2026-06-20T10:15:52.516671+00:00"},{"fuel_type":"E10","price":1.774,"currency":"EUR","unit":"L","updated_at":"2026-06-20T10:15:52.516671+00:00"},{"fuel_type":"DIESEL","price":1.735,"currency":"EUR","unit":"L","updated_at":"2026-06-20T10:15:52.516671+00:00"}]},{"id":"ee_xavvy_M_EST_3154064","country":"EE","name":"ALEXELA","brand":"ALEXELA","address":"Lemsi Kula","city":"Lemsi Kula","lat":58.140846,"lon":24.018382,"source":"anwb.nl (ANWB POI API)","confidence":0.85,"prices":[{"fuel_type":"DIESEL","price":1.735,"currency":"EUR","unit":"L","updated_at":"2026-06-20T10:15:52.516671+00:00"}]},{"id":"ee_xavvy_M_EST_3154066","country":"EE","name":"ALEXELA","brand":"ALEXELA","address":"Jarvekula Tee 70","city":"Kohtla-Jarve","lat":59.402374,"lon":27.297749,"source":"anwb.nl (ANWB POI API)","confidence":0.85,"prices":[{"fuel_type":"E10","price":1.834,"currency":"EUR","unit":"L","updated_at":"2026-06-20T10:15:52.516671+00:00"},{"fuel_type":"DIESEL","price":1.735,"currency":"EUR","unit":"L","updated_at":"2026-06-20T10:15:52.516671+00:00"}]},{"id":"ee_xavvy_M_EST_3154068","country":"EE","name":"ALEXELA","brand":"ALEXELA","address":"Tulika 33","city":"Tallinn","lat":59.426039,"lon":24.722942,"source":"anwb.nl (ANWB POI API)","confidence":0.85,"prices":[{"fuel_type":"E5","price":1.543,"currency":"EUR","unit":"L","updated_at":"2026-06-20T10:15:52.516671+00:00"},{"fuel_type":"E10","price":1.729,"currency":"EUR","unit":"L","updated_at":"2026-06-20T10:15:52.516671+00:00"},{"fuel_type":"DIESEL","price":1.735,"currency":"EUR","unit":"L","updated_at":"2026-06-20T10:15:52.516671+00:00"}]},{"id":"ee_xavvy_M_EST_3154069","country":"EE","name":"ALEXELA","brand":"ALEXELA","address":"Jaama 16 16","city":"Kunda","lat":59.50021,"lon":26.537301,"source":"anwb.nl (ANWB POI API)","confidence":0.85,"prices":[{"fuel_type":"E10","price":1.584,"currency":"EUR","unit":"L","updated_at":"2026-06-20T10:15:52.516671+00:00"},{"fuel_type":"E5","price":1.634,"currency":"EUR","unit":"L","updated_at":"2026-06-20T10:15:52.516671+00:00"},{"fuel_type":"DIESEL","price":1.735,"currency":"EUR","unit":"L","updated_at":"2026-06-20T10:15:52.516671+00:00"}]},{"id":"ee_xavvy_M_EST_3154070","country":"EE","name":"ALEXELA","brand":"ALEXELA","address":"Sorve Tee 2","city":"Kuressaare","lat":58.246915,"lon":22.460078,"source":"anwb.nl (ANWB POI API)","confidence":0.85,"prices":[{"fuel_type":"E5","price":1.509,"currency":"EUR","unit":"L","updated_at":"2026-06-20T10:15:52.516671+00:00"},{"fuel_type":"E10","price":1.734,"currency":"EUR","unit":"L","updated_at":"2026-06-20T10:15:52.516671+00:00"},{"fuel_type":"DIESEL","price":1.735,"currency":"EUR","unit":"L","updated_at":"2026-06-20T10:15:52.516671+00:00"}]},{"id":"ee_xavvy_M_EST_3154071","country":"EE","name":"ALEXELA","brand":"ALEXELA","address":"Kuusalu Tee 50","city":"Kuusalu","lat":59.448257,"lon":25.435239,"source":"anwb.nl (ANWB POI API)","confidence":0.85,"prices":[{"fuel_type":"E5","price":1.622,"currency":"EUR","unit":"L","updated_at":"2026-06-20T10:15:52.516671+00:00"},{"fuel_type":"E10","price":1.654,"currency":"EUR","unit":"L","updated_at":"2026-06-20T10:15:52.516671+00:00"},{"fuel_type":"DIESEL","price":1.735,"currency":"EUR","unit":"L","updated_at":"2026-06-20T10:15:52.516671+00:00"}]},{"id":"ee_xavvy_M_EST_3154074","country":"EE","name":"ALEXELA","brand":"ALEXELA","address":"Valmaotsa Kula","city":"Valmaotsa Kula","lat":58.471264,"lon":26.3603,"source":"anwb.nl (ANWB POI API)","confidence":0.85,"prices":[{"fuel_type":"E5","price":1.639,"currency":"EUR","unit":"L","updated_at":"2026-06-20T10:15:52.516671+00:00"},{"fuel_type":"E10","price":1.589,"currency":"EUR","unit":"L","updated_at":"2026-06-20T10:15:52.516671+00:00"},{"fuel_type":"DIESEL","price":1.735,"currency":"EUR","unit":"L","updated_at":"2026-06-20T10:15:52.516671+00:00"}]},{"id":"ee_xavvy_M_EST_3154077","country":"EE","name":"ALEXELA","brand":"ALEXELA","address":"Niidu Tee 2","city":"Loo","lat":59.442876,"lon":24.92908,"source":"anwb.nl (ANWB POI API)","confidence":0.85,"prices":[{"fuel_type":"E5","price":1.611,"currency":"EUR","unit":"L","updated_at":"2026-06-20T10:15:52.516671+00:00"},{"fuel_type":"E10","price":1.479,"currency":"EUR","unit":"L","updated_at":"2026-06-20T10:15:52.516671+00:00"},{"fuel_type":"DIESEL","price":1.735,"currency":"EUR","unit":"L","updated_at":"2026-06-20T10:15:52.516671+00:00"}]},{"id":"ee_xavvy_M_EST_3154078","country":"EE","name":"ALEXELA","brand":"ALEXELA","address":"Ringtee 75b","city":"Tartu","lat":58.357463,"lon":26.680495,"source":"anwb.nl (ANWB POI API)","confidence":0.85,"prices":[{"fuel_type":"E5","price":1.649,"currency":"EUR","unit":"L","updated_at":"2026-06-20T10:15:52.516671+00:00"},{"fuel_type":"E10","price":1.534,"currency":"EUR","unit":"L","updated_at":"2026-06-20T10:15:52.516671+00:00"},{"fuel_type":"CNG","price":1.567,"currency":"EUR","unit":"kg","updated_at":"2026-06-20T10:15:52.516671+00:00"},{"fuel_type":"DIESEL","price":1.735,"currency":"EUR","unit":"L","updated_at":"2026-06-20T10:15:52.516671+00:00"}]},{"id":"ee_xavvy_M_EST_3154079","country":"EE","name":"ALEXELA","brand":"ALEXELA","address":"Marja 3","city":"Tallinn","lat":59.42327,"lon":24.695728,"source":"anwb.nl (ANWB POI API)","confidence":0.85,"prices":[{"fuel_type":"E5","price":1.669,"currency":"EUR","unit":"L","updated_at":"2026-06-20T10:15:52.516671+00:00"},{"fuel_type":"E10","price":1.619,"currency":"EUR","unit":"L","updated_at":"2026-06-20T10:15:52.516671+00:00"},{"fuel_type":"DIESEL","price":1.735,"currency":"EUR","unit":"L","updated_at":"2026-06-20T10:15:52.516671+00:00"}]},{"id":"ee_xavvy_M_EST_3154080","country":"EE","name":"ALEXELA","brand":"ALEXELA","address":"Liiva Kula","city":"Liiva Kula","lat":58.605352,"lon":23.235953,"source":"anwb.nl (ANWB POI API)","confidence":0.85,"prices":[{"fuel_type":"E5","price":1.517,"currency":"EUR","unit":"L","updated_at":"2026-06-20T10:15:52.516671+00:00"},{"fuel_type":"E10","price":1.585,"currency":"EUR","unit":"L","updated_at":"2026-06-20T10:15:52.516671+00:00"},{"fuel_type":"DIESEL","price":1.735,"currency":"EUR","unit":"L","updated_at":"2026-06-20T10:15:52.516671+00:00"}]},{"id":"ee_xavvy_M_EST_3154083","country":"EE","name":"ALEXELA","brand":"ALEXELA","address":"Mustamae Tee 46b","city":"Tallinn","lat":59.416563,"lon":24.692304,"source":"anwb.nl (ANWB POI API)","confidence":0.85,"prices":[{"fuel_type":"E10","price":1.769,"currency":"EUR","unit":"L","updated_at":"2026-06-20T10:15:52.516671+00:00"},{"fuel_type":"DIESEL","price":1.735,"currency":"EUR","unit":"L","updated_at":"2026-06-20T10:15:52.516671+00:00"}]},{"id":"ee_xavvy_M_EST_3154087","country":"EE","name":"ALEXELA","brand":"ALEXELA","address":"Suur-Lootsi 4","city":"Narva-Joesuu","lat":59.464475,"lon":28.045285,"source":"anwb.nl (ANWB POI API)","confidence":0.85,"prices":[{"fuel_type":"DIESEL","price":1.735,"currency":"EUR","unit":"L","updated_at":"2026-06-20T10:15:52.516671+00:00"}]},{"id":"ee_xavvy_M_EST_3154090","country":"EE","name":"ALEXELA","brand":"ALEXELA","address":"Kuivastu Mnt 3a","city":"Orissaare","lat":58.55813,"lon":23.070418,"source":"anwb.nl (ANWB POI API)","confidence":0.85,"prices":[{"fuel_type":"E10","price":1.579,"currency":"EUR","unit":"L","updated_at":"2026-06-20T10:15:52.516671+00:00"},{"fuel_type":"E5","price":1.629,"currency":"EUR","unit":"L","updated_at":"2026-06-20T10:15:52.516671+00:00"},{"fuel_type":"DIESEL","price":1.735,"currency":"EUR","unit":"L","updated_at":"2026-06-20T10:15:52.516671+00:00"}]},{"id":"ee_xavvy_M_EST_3154091","country":"EE","name":"ALEXELA","brand":"ALEXELA","address":"Tartu Mnt 24","city":"Otepaa","lat":58.062837,"lon":26.498037,"source":"anwb.nl (ANWB POI API)","confidence":0.85,"prices":[{"fuel_type":"E5","price":1.621,"currency":"EUR","unit":"L","updated_at":"2026-06-20T10:15:52.516671+00:00"},{"fuel_type":"E10","price":1.476,"currency":"EUR","unit":"L","updated_at":"2026-06-20T10:15:52.516671+00:00"},{"fuel_type":"DIESEL","price":1.735,"currency":"EUR","unit":"L","updated_at":"2026-06-20T10:15:52.516671+00:00"}]},{"id":"ee_xavvy_M_EST_3154093","country":"EE","name":"ALEXELA","brand":"ALEXELA","address":"Tallinna Mnt 20","city":"Paldiski","lat":59.339417,"lon":24.105153,"source":"anwb.nl (ANWB POI API)","confidence":0.85,"prices":[{"fuel_type":"DIESEL","price":1.735,"currency":"EUR","unit":"L","updated_at":"2026-06-20T10:15:52.516671+00:00"}]},{"id":"ee_xavvy_M_EST_3154094","country":"EE","name":"ALEXELA","brand":"ALEXELA","address":"Peterburi Tee 77","city":"Tallinn","lat":59.432194,"lon":24.849739,"source":"anwb.nl (ANWB POI API)","confidence":0.85,"prices":[{"fuel_type":"E5","price":1.549,"currency":"EUR","unit":"L","updated_at":"2026-06-20T10:15:52.516671+00:00"},{"fuel_type":"E10","price":1.794,"currency":"EUR","unit":"L","updated_at":"2026-06-20T10:15:52.516671+00:00"},{"fuel_type":"DIESEL","price":1.735,"currency":"EUR","unit":"L","updated_at":"2026-06-20T10:15:52.516671+00:00"}]},{"id":"ee_xavvy_M_EST_3154095","country":"EE","name":"ALEXELA","brand":"ALEXELA","address":"Regati Pst 1","city":"Tallinn","lat":59.466858,"lon":24.822574,"source":"anwb.nl (ANWB POI API)","confidence":0.85,"prices":[{"fuel_type":"DIESEL","price":1.735,"currency":"EUR","unit":"L","updated_at":"2026-06-20T10:15:52.516671+00:00"}]},{"id":"ee_xavvy_M_EST_3154096","country":"EE","name":"ALEXELA","brand":"ALEXELA","address":"Jogeva Mnt, Poltsamaa Linn 25","city":"Poltsamaa","lat":58.663145,"lon":25.990819,"source":"anwb.nl (ANWB POI API)","confidence":0.85,"prices":[{"fuel_type":"E10","price":1.574,"currency":"EUR","unit":"L","updated_at":"2026-06-20T10:15:52.516671+00:00"},{"fuel_type":"E5","price":1.624,"currency":"EUR","unit":"L","updated_at":"2026-06-20T10:15:52.516671+00:00"},{"fuel_type":"DIESEL","price":1.735,"currency":"EUR","unit":"L","updated_at":"2026-06-20T10:15:52.516671+00:00"}]},{"id":"ee_xavvy_M_EST_3154097","country":"EE","name":"ALEXELA","brand":"ALEXELA","address":"Jaama 16b","city":"Polva","lat":58.066978,"lon":27.075324,"source":"anwb.nl (ANWB POI API)","confidence":0.85,"prices":[{"fuel_type":"E5","price":1.612,"currency":"EUR","unit":"L","updated_at":"2026-06-20T10:15:52.516671+00:00"},{"fuel_type":"E10","price":1.562,"currency":"EUR","unit":"L","updated_at":"2026-06-20T10:15:52.516671+00:00"},{"fuel_type":"DIESEL","price":1.735,"currency":"EUR","unit":"L","updated_at":"2026-06-20T10:15:52.516671+00:00"}]},{"id":"ee_xavvy_M_EST_3154100","country":"EE","name":"ALEXELA","brand":"ALEXELA","address":"Tallinna Mnt 68","city":"Parnu","lat":58.403394,"lon":24.492268,"source":"anwb.nl (ANWB POI API)","confidence":0.85,"prices":[{"fuel_type":"E5","price":1.626,"currency":"EUR","unit":"L","updated_at":"2026-06-20T10:15:52.516671+00:00"},{"fuel_type":"E10","price":1.765,"currency":"EUR","unit":"L","updated_at":"2026-06-20T10:15:52.516671+00:00"},{"fuel_type":"DIESEL","price":1.735,"currency":"EUR","unit":"L","updated_at":"2026-06-20T10:15:52.516671+00:00"}]},{"id":"ee_xavvy_M_EST_3154101","country":"EE","name":"ALEXELA","brand":"ALEXELA","address":"Papiniidu 19a","city":"Parnu","lat":58.370676,"lon":24.547503,"source":"anwb.nl (ANWB POI API)","confidence":0.85,"prices":[{"fuel_type":"E10","price":1.549,"currency":"EUR","unit":"L","updated_at":"2026-06-20T10:15:52.516671+00:00"},{"fuel_type":"E5","price":1.599,"currency":"EUR","unit":"L","updated_at":"2026-06-20T10:15:52.516671+00:00"},{"fuel_type":"DIESEL","price":1.735,"currency":"EUR","unit":"L","updated_at":"2026-06-20T10:15:52.516671+00:00"}]},{"id":"ee_xavvy_M_EST_3154103","country":"EE","name":"ALEXELA","brand":"ALEXELA","address":"Koidula 3","city":"Rakvere","lat":59.34638,"lon":26.36279,"source":"anwb.nl (ANWB POI API)","confidence":0.85,"prices":[{"fuel_type":"DIESEL","price":1.735,"currency":"EUR","unit":"L","updated_at":"2026-06-20T10:15:52.516671+00:00"}]},{"id":"ee_xavvy_M_EST_3154106","country":"EE","name":"ALEXELA","brand":"ALEXELA","address":"Era 2a 2 A","city":"Tartu","lat":58.371835,"lon":26.72124,"source":"anwb.nl (ANWB POI API)","confidence":0.85,"prices":[{"fuel_type":"E5","price":1.55,"currency":"EUR","unit":"L","updated_at":"2026-06-20T10:15:52.516671+00:00"},{"fuel_type":"E10","price":1.639,"currency":"EUR","unit":"L","updated_at":"2026-06-20T10:15:52.516671+00:00"},{"fuel_type":"DIESEL","price":1.735,"currency":"EUR","unit":"L","updated_at":"2026-06-20T10:15:52.516671+00:00"}]},{"id":"ee_xavvy_M_EST_3154107","country":"EE","name":"ALEXELA","brand":"ALEXELA","address":"Vilumae Kula","city":"Vilumae Kula","lat":59.122801,"lon":24.302433,"source":"anwb.nl (ANWB POI API)","confidence":0.85,"prices":[{"fuel_type":"E5","price":1.519,"currency":"EUR","unit":"L","updated_at":"2026-06-20T10:15:52.516671+00:00"},{"fuel_type":"E10","price":1.949,"currency":"EUR","unit":"L","updated_at":"2026-06-20T10:15:52.516671+00:00"},{"fuel_type":"DIESEL","price":1.735,"currency":"EUR","unit":"L","updated_at":"2026-06-20T10:15:52.516671+00:00"}]},{"id":"ee_xavvy_M_EST_3154108","country":"EE","name":"ALEXELA","brand":"ALEXELA","address":"Paldiski Mnt 102","city":"Tallinn","lat":59.424852,"lon":24.649813,"source":"anwb.nl (ANWB POI API)","confidence":0.85,"prices":[{"fuel_type":"E5","price":1.519,"currency":"EUR","unit":"L","updated_at":"2026-06-20T10:15:52.516671+00:00"},{"fuel_type":"E10","price":1.479,"currency":"EUR","unit":"L","updated_at":"2026-06-20T10:15:52.516671+00:00"},{"fuel_type":"DIESEL","price":1.735,"currency":"EUR","unit":"L","updated_at":"2026-06-20T10:15:52.516671+00:00"}]},{"id":"ee_xavvy_M_EST_3154109","country":"EE","name":"ALEXELA","brand":"ALEXELA","address":"Tammemae Kula","city":"Tammemae Kula","lat":59.311921,"lon":24.681445,"source":"anwb.nl (ANWB POI API)","confidence":0.85,"prices":[{"fuel_type":"E5","price":1.631,"currency":"EUR","unit":"L","updated_at":"2026-06-20T10:15:52.516671+00:00"},{"fuel_type":"E10","price":1.814,"currency":"EUR","unit":"L","updated_at":"2026-06-20T10:15:52.516671+00:00"},{"fuel_type":"DIESEL","price":1.735,"currency":"EUR","unit":"L","updated_at":"2026-06-20T10:15:52.516671+00:00"}]},{"id":"ee_xavvy_M_EST_3154110","country":"EE","name":"ALEXELA","brand":"ALEXELA","address":"Sooja 2a","city":"Saue","lat":59.322714,"lon":24.567054,"source":"anwb.nl (ANWB POI API)","confidence":0.85,"prices":[{"fuel_type":"DIESEL","price":1.735,"currency":"EUR","unit":"L","updated_at":"2026-06-20T10:15:52.516671+00:00"}]},{"id":"ee_xavvy_M_EST_3154111","country":"EE","name":"ALEXELA","brand":"ALEXELA","address":"Tartu Mnt 87b","city":"Tallinn","lat":59.425319,"lon":24.784039,"source":"anwb.nl (ANWB POI API)","confidence":0.85,"prices":[{"fuel_type":"E5","price":1.549,"currency":"EUR","unit":"L","updated_at":"2026-06-20T10:15:52.516671+00:00"},{"fuel_type":"E10","price":1.649,"currency":"EUR","unit":"L","updated_at":"2026-06-20T10:15:52.516671+00:00"},{"fuel_type":"DIESEL","price":1.735,"currency":"EUR","unit":"L","updated_at":"2026-06-20T10:15:52.516671+00:00"}]},{"id":"ee_xavvy_M_EST_3154113","country":"EE","name":"ALEXELA","brand":"ALEXELA","address":"Oja 2","city":"Suure-Jaani","lat":58.528988,"lon":25.463946,"source":"anwb.nl (ANWB POI API)","confidence":0.85,"prices":[{"fuel_type":"E10","price":1.655,"currency":"EUR","unit":"L","updated_at":"2026-06-20T10:15:52.516671+00:00"},{"fuel_type":"DIESEL","price":1.735,"currency":"EUR","unit":"L","updated_at":"2026-06-20T10:15:52.516671+00:00"}]},{"id":"ee_xavvy_M_EST_3154115","country":"EE","name":"ALEXELA","brand":"ALEXELA","address":"Puiestee 22","city":"Someru","lat":59.365336,"lon":26.432953,"source":"anwb.nl (ANWB POI API)","confidence":0.85,"prices":[{"fuel_type":"DIESEL","price":1.735,"currency":"EUR","unit":"L","updated_at":"2026-06-20T10:15:52.516671+00:00"}]},{"id":"ee_xavvy_M_EST_3154117","country":"EE","name":"ALEXELA","brand":"ALEXELA","address":"Pikk 16","city":"Tapa","lat":59.261025,"lon":25.963603,"source":"anwb.nl (ANWB POI API)","confidence":0.85,"prices":[{"fuel_type":"E10","price":1.489,"currency":"EUR","unit":"L","updated_at":"2026-06-20T10:15:52.516671+00:00"},{"fuel_type":"DIESEL","price":1.735,"currency":"EUR","unit":"L","updated_at":"2026-06-20T10:15:52.516671+00:00"}]},{"id":"ee_xavvy_M_EST_3154119","country":"EE","name":"ALEXELA","brand":"ALEXELA","address":"Anne 46","city":"Tartu","lat":58.377802,"lon":26.754139,"source":"anwb.nl (ANWB POI API)","confidence":0.85,"prices":[{"fuel_type":"DIESEL","price":1.735,"currency":"EUR","unit":"L","updated_at":"2026-06-20T10:15:52.516671+00:00"}]},{"id":"ee_xavvy_M_EST_3154120","country":"EE","name":"ALEXELA","brand":"ALEXELA","address":"Kalda Tee 24b","city":"Tartu","lat":58.372103,"lon":26.761942,"source":"anwb.nl (ANWB POI API)","confidence":0.85,"prices":[{"fuel_type":"E10","price":1.493,"currency":"EUR","unit":"L","updated_at":"2026-06-20T10:15:52.516671+00:00"},{"fuel_type":"E5","price":1.543,"currency":"EUR","unit":"L","updated_at":"2026-06-20T10:15:52.516671+00:00"},{"fuel_type":"DIESEL","price":1.735,"currency":"EUR","unit":"L","updated_at":"2026-06-20T10:15:52.516671+00:00"}]},{"id":"ee_xavvy_M_EST_3154121","country":"EE","name":"ALEXELA","brand":"ALEXELA","address":"Tuglase 19","city":"Tartu","lat":58.384768,"lon":26.691197,"source":"anwb.nl (ANWB POI API)","confidence":0.85,"prices":[{"fuel_type":"E5","price":1.749,"currency":"EUR","unit":"L","updated_at":"2026-06-20T10:15:52.516671+00:00"},{"fuel_type":"E10","price":1.699,"currency":"EUR","unit":"L","updated_at":"2026-06-20T10:15:52.516671+00:00"},{"fuel_type":"DIESEL","price":1.735,"currency":"EUR","unit":"L","updated_at":"2026-06-20T10:15:52.516671+00:00"}]},{"id":"ee_xavvy_M_EST_3154122","country":"EE","name":"ALEXELA","brand":"ALEXELA","address":"Todva Kula","city":"Todva Kula","lat":59.270205,"lon":24.740624,"source":"anwb.nl (ANWB POI API)","confidence":0.85,"prices":[{"fuel_type":"E5","price":1.64,"currency":"EUR","unit":"L","updated_at":"2026-06-20T10:15:52.516671+00:00"},{"fuel_type":"E10","price":1.769,"currency":"EUR","unit":"L","updated_at":"2026-06-20T10:15:52.516671+00:00"},{"fuel_type":"DIESEL","price":1.735,"currency":"EUR","unit":"L","updated_at":"2026-06-20T10:15:52.516671+00:00"}]},{"id":"ee_xavvy_M_EST_3154123","country":"EE","name":"ALEXELA","brand":"ALEXELA","address":"Toostuse 52b","city":"Tallinn","lat":59.451051,"lon":24.721713,"source":"anwb.nl (ANWB POI API)","confidence":0.85,"prices":[{"fuel_type":"E5","price":1.634,"currency":"EUR","unit":"L","updated_at":"2026-06-20T10:15:52.516671+00:00"},{"fuel_type":"E10","price":1.424,"currency":"EUR","unit":"L","updated_at":"2026-06-20T10:15:52.516671+00:00"},{"fuel_type":"DIESEL","price":1.735,"currency":"EUR","unit":"L","updated_at":"2026-06-20T10:15:52.516671+00:00"}]},{"id":"ee_xavvy_M_EST_3154124","country":"EE","name":"ALEXELA","brand":"ALEXELA","address":"Viljandi Mnt 15","city":"Turi","lat":58.801449,"lon":25.429414,"source":"anwb.nl (ANWB POI API)","confidence":0.85,"prices":[{"fuel_type":"E5","price":1.639,"currency":"EUR","unit":"L","updated_at":"2026-06-20T10:15:52.516671+00:00"},{"fuel_type":"E10","price":1.794,"currency":"EUR","unit":"L","updated_at":"2026-06-20T10:15:52.516671+00:00"},{"fuel_type":"DIESEL","price":1.735,"currency":"EUR","unit":"L","updated_at":"2026-06-20T10:15:52.516671+00:00"}]},{"id":"ee_xavvy_M_EST_3154125","country":"EE","name":"ALEXELA","brand":"ALEXELA","address":"Vabaduse 41","city":"Valga","lat":57.774804,"lon":26.042473,"source":"anwb.nl (ANWB POI API)","confidence":0.85,"prices":[{"fuel_type":"E5","price":1.694,"currency":"EUR","unit":"L","updated_at":"2026-06-20T10:15:52.516671+00:00"},{"fuel_type":"E10","price":1.455,"currency":"EUR","unit":"L","updated_at":"2026-06-20T10:15:52.516671+00:00"},{"fuel_type":"DIESEL","price":1.735,"currency":"EUR","unit":"L","updated_at":"2026-06-20T10:15:52.516671+00:00"}]},{"id":"ee_xavvy_M_EST_3154126","country":"EE","name":"ALEXELA","brand":"ALEXELA","address":"Vana-Louna 30","city":"Tallinn","lat":59.420092,"lon":24.742444,"source":"anwb.nl (ANWB POI API)","confidence":0.85,"prices":[{"fuel_type":"E5","price":1.624,"currency":"EUR","unit":"L","updated_at":"2026-06-20T10:15:52.516671+00:00"},{"fuel_type":"E10","price":1.699,"currency":"EUR","unit":"L","updated_at":"2026-06-20T10:15:52.516671+00:00"},{"fuel_type":"DIESEL","price":1.735,"currency":"EUR","unit":"L","updated_at":"2026-06-20T10:15:52.516671+00:00"}]},{"id":"ee_xavvy_M_EST_3154127","country":"EE","name":"ALEXELA","brand":"ALEXELA","address":"Sadama Tn 25","city":"Tallinn","lat":59.444759,"lon":24.759665,"source":"anwb.nl (ANWB POI API)","confidence":0.85,"prices":[{"fuel_type":"DIESEL","price":1.735,"currency":"EUR","unit":"L","updated_at":"2026-06-20T10:15:52.516671+00:00"}]},{"id":"ee_xavvy_M_EST_3154128","country":"EE","name":"ALEXELA","brand":"ALEXELA","address":"Vesse 2","city":"Tallinn","lat":59.428251,"lon":24.832227,"source":"anwb.nl (ANWB POI API)","confidence":0.85,"prices":[{"fuel_type":"E5","price":1.584,"currency":"EUR","unit":"L","updated_at":"2026-06-20T10:15:52.516671+00:00"},{"fuel_type":"E10","price":1.794,"currency":"EUR","unit":"L","updated_at":"2026-06-20T10:15:52.516671+00:00"},{"fuel_type":"DIESEL","price":1.735,"currency":"EUR","unit":"L","updated_at":"2026-06-20T10:15:52.516671+00:00"}]},{"id":"ee_xavvy_M_EST_3154129","country":"EE","name":"ALEXELA","brand":"ALEXELA","address":"Uus 4","city":"Viljandi","lat":58.368102,"lon":25.599737,"source":"anwb.nl (ANWB POI API)","confidence":0.85,"prices":[{"fuel_type":"E10","price":1.793,"currency":"EUR","unit":"L","updated_at":"2026-06-20T10:15:52.516671+00:00"},{"fuel_type":"DIESEL","price":1.735,"currency":"EUR","unit":"L","updated_at":"2026-06-20T10:15:52.516671+00:00"}]},{"id":"ee_xavvy_M_EST_3154131","country":"EE","name":"ALEXELA","brand":"ALEXELA","address":"Vanalinna Tn 2","city":"Virtsu Alevik","lat":58.587726,"lon":23.527787,"source":"anwb.nl (ANWB POI API)","confidence":0.85,"prices":[{"fuel_type":"E5","price":1.677,"currency":"EUR","unit":"L","updated_at":"2026-06-20T10:15:52.516671+00:00"},{"fuel_type":"E10","price":1.49,"currency":"EUR","unit":"L","updated_at":"2026-06-20T10:15:52.516671+00:00"},{"fuel_type":"DIESEL","price":1.735,"currency":"EUR","unit":"L","updated_at":"2026-06-20T10:15:52.516671+00:00"}]},{"id":"ee_xavvy_M_EST_3154134","country":"EE","name":"ALEXELA","brand":"ALEXELA","address":"Kaardi 1","city":"Voiste","lat":58.21125,"lon":24.484777,"source":"anwb.nl (ANWB POI API)","confidence":0.85,"prices":[{"fuel_type":"E5","price":1.619,"currency":"EUR","unit":"L","updated_at":"2026-06-20T10:15:52.516671+00:00"},{"fuel_type":"E10","price":1.844,"currency":"EUR","unit":"L","updated_at":"2026-06-20T10:15:52.516671+00:00"},{"fuel_type":"DIESEL","price":1.735,"currency":"EUR","unit":"L","updated_at":"2026-06-20T10:15:52.516671+00:00"}]},{"id":"ee_xavvy_M_EST_3154135","country":"EE","name":"ALEXELA","brand":"ALEXELA","address":"Kose Tee 6","city":"Voru","lat":57.820865,"lon":27.020979,"source":"anwb.nl (ANWB POI API)","confidence":0.85,"prices":[{"fuel_type":"E5","price":1.709,"currency":"EUR","unit":"L","updated_at":"2026-06-20T10:15:52.516671+00:00"},{"fuel_type":"E10","price":1.599,"currency":"EUR","unit":"L","updated_at":"2026-06-20T10:15:52.516671+00:00"},{"fuel_type":"DIESEL","price":1.735,"currency":"EUR","unit":"L","updated_at":"2026-06-20T10:15:52.516671+00:00"}]},{"id":"ee_xavvy_M_EST_3154136","country":"EE","name":"ALEXELA","brand":"ALEXELA","address":"Piiri 6","city":"Vosu","lat":59.585451,"lon":25.972168,"source":"anwb.nl (ANWB POI API)","confidence":0.85,"prices":[{"fuel_type":"DIESEL","price":1.735,"currency":"EUR","unit":"L","updated_at":"2026-06-20T10:15:52.516671+00:00"}]},{"id":"ee_xavvy_M_EST_3154137","country":"EE","name":"ALEXELA","brand":"ALEXELA","address":"J.V.Jannseni 4","city":"Allikonnu Kula","lat":58.652578,"lon":25.022706,"source":"anwb.nl (ANWB POI API)","confidence":0.85,"prices":[{"fuel_type":"E5","price":1.634,"currency":"EUR","unit":"L","updated_at":"2026-06-20T10:15:52.516671+00:00"},{"fuel_type":"E10","price":1.584,"currency":"EUR","unit":"L","updated_at":"2026-06-20T10:15:52.516671+00:00"},{"fuel_type":"DIESEL","price":1.735,"currency":"EUR","unit":"L","updated_at":"2026-06-20T10:15:52.516671+00:00"}]},{"id":"ee_xavvy_M_EST_3154138","country":"EE","name":"ALEXELA","brand":"ALEXELA","address":"Peterburi Tee 98","city":"Tallinn","lat":59.440392,"lon":24.89774,"source":"anwb.nl (ANWB POI API)","confidence":0.85,"prices":[{"fuel_type":"E5","price":1.626,"currency":"EUR","unit":"L","updated_at":"2026-06-20T10:15:52.516671+00:00"},{"fuel_type":"E10","price":1.455,"currency":"EUR","unit":"L","updated_at":"2026-06-20T10:15:52.516671+00:00"},{"fuel_type":"DIESEL","price":1.735,"currency":"EUR","unit":"L","updated_at":"2026-06-20T10:15:52.516671+00:00"}]},{"id":"ee_xavvy_M_EST_3154139","country":"EE","name":"ALEXELA","brand":"ALEXELA","address":"Ehitajate Tee 114c","city":"Tallinn","lat":59.414555,"lon":24.658911,"source":"anwb.nl (ANWB POI API)","confidence":0.85,"prices":[{"fuel_type":"E5","price":1.614,"currency":"EUR","unit":"L","updated_at":"2026-06-20T10:15:52.516671+00:00"},{"fuel_type":"E10","price":1.794,"currency":"EUR","unit":"L","updated_at":"2026-06-20T10:15:52.516671+00:00"},{"fuel_type":"DIESEL","price":1.735,"currency":"EUR","unit":"L","updated_at":"2026-06-20T10:15:52.516671+00:00"}]},{"id":"ee_xavvy_M_EST_32219","country":"EE","name":"CIRCLE K","brand":"CIRCLE K","address":"Juhkentali 3 G","city":"Tallinn","lat":59.429219,"lon":24.758887,"source":"anwb.nl (ANWB POI API)","confidence":0.85,"prices":[{"fuel_type":"DIESEL","price":1.819,"currency":"EUR","unit":"L","updated_at":"2026-06-20T10:15:52.516671+00:00"},{"fuel_type":"E10","price":1.738,"currency":"EUR","unit":"L","updated_at":"2026-06-20T10:15:52.516671+00:00"}]},{"id":"ee_xavvy_M_EST_3281343","country":"EE","name":"TERMINAL","brand":"TERMINAL","address":"Kaarma Tankla Ebavere Kla","city":"Vaike-Maarja","lat":59.111354,"lon":26.237267,"source":"anwb.nl (ANWB POI API)","confidence":0.85,"prices":[{"fuel_type":"E5","price":1.502,"currency":"EUR","unit":"L","updated_at":"2026-06-20T10:15:52.516671+00:00"},{"fuel_type":"E10","price":1.59,"currency":"EUR","unit":"L","updated_at":"2026-06-20T10:15:52.516671+00:00"},{"fuel_type":"DIESEL","price":1.672,"currency":"EUR","unit":"L","updated_at":"2026-06-20T10:15:52.516671+00:00"}]},{"id":"ee_xavvy_M_EST_32856","country":"EE","name":"CIRCLE K","brand":"CIRCLE K","address":"Ehitajate Tee 4","city":"Pärnu","lat":58.407355,"lon":24.498119,"source":"anwb.nl (ANWB POI API)","confidence":0.85,"prices":[{"fuel_type":"E10","price":1.769,"currency":"EUR","unit":"L","updated_at":"2026-06-20T10:15:52.516671+00:00"},{"fuel_type":"DIESEL","price":1.755,"currency":"EUR","unit":"L","updated_at":"2026-06-20T10:15:52.516671+00:00"}]},{"id":"ee_xavvy_M_EST_32862","country":"EE","name":"CIRCLE K","brand":"CIRCLE K","address":"Pärnu Mnt 236","city":"Tallinn","lat":59.392794,"lon":24.722872,"source":"anwb.nl (ANWB POI API)","confidence":0.85,"prices":[{"fuel_type":"E10","price":1.6,"currency":"EUR","unit":"L","updated_at":"2026-06-20T10:15:52.516671+00:00"},{"fuel_type":"DIESEL","price":1.829,"currency":"EUR","unit":"L","updated_at":"2026-06-20T10:15:52.516671+00:00"}]},{"id":"ee_xavvy_M_EST_32914","country":"EE","name":"CIRCLE K","brand":"CIRCLE K","address":"Vana-Rannamõisa Tee 1","city":"Tallinn","lat":59.427653,"lon":24.628757,"source":"anwb.nl (ANWB POI API)","confidence":0.85,"prices":[{"fuel_type":"E10","price":1.479,"currency":"EUR","unit":"L","updated_at":"2026-06-20T10:15:52.516671+00:00"},{"fuel_type":"DIESEL","price":2.058,"currency":"EUR","unit":"L","updated_at":"2026-06-20T10:15:52.516671+00:00"}]},{"id":"ee_xavvy_M_EST_32915","country":"EE","name":"CIRCLE K","brand":"CIRCLE K","address":"Õismäe Tee 10a","city":"Tallinn","lat":59.412877,"lon":24.651901,"source":"anwb.nl (ANWB POI API)","confidence":0.85,"prices":[{"fuel_type":"E10","price":1.639,"currency":"EUR","unit":"L","updated_at":"2026-06-20T10:15:52.516671+00:00"},{"fuel_type":"DIESEL","price":2.058,"currency":"EUR","unit":"L","updated_at":"2026-06-20T10:15:52.516671+00:00"}]},{"id":"ee_xavvy_M_EST_3638660","country":"EE","name":"TERMINAL","brand":"TERMINAL","address":"Selja Tee 11","city":"Kunda","lat":59.494187,"lon":26.511794,"source":"anwb.nl (ANWB POI API)","confidence":0.85,"prices":[{"fuel_type":"DIESEL","price":1.672,"currency":"EUR","unit":"L","updated_at":"2026-06-20T10:15:52.516671+00:00"}]},{"id":"ee_xavvy_M_EST_3638666","country":"EE","name":"TERMINAL","brand":"TERMINAL","address":"Hommiku Tn 2","city":"Puhja","lat":58.339684,"lon":26.31887,"source":"anwb.nl (ANWB POI API)","confidence":0.85,"prices":[{"fuel_type":"E5","price":1.502,"currency":"EUR","unit":"L","updated_at":"2026-06-20T10:15:52.516671+00:00"},{"fuel_type":"E10","price":1.859,"currency":"EUR","unit":"L","updated_at":"2026-06-20T10:15:52.516671+00:00"},{"fuel_type":"DIESEL","price":1.672,"currency":"EUR","unit":"L","updated_at":"2026-06-20T10:15:52.516671+00:00"}]},{"id":"ee_xavvy_M_EST_3638667","country":"EE","name":"TERMINAL","brand":"TERMINAL","address":"Rakvere 17","city":"Selja","lat":58.518418,"lon":24.820011,"source":"anwb.nl (ANWB POI API)","confidence":0.85,"prices":[{"fuel_type":"E5","price":1.502,"currency":"EUR","unit":"L","updated_at":"2026-06-20T10:15:52.516671+00:00"},{"fuel_type":"E10","price":1.452,"currency":"EUR","unit":"L","updated_at":"2026-06-20T10:15:52.516671+00:00"},{"fuel_type":"DIESEL","price":1.672,"currency":"EUR","unit":"L","updated_at":"2026-06-20T10:15:52.516671+00:00"}]},{"id":"ee_xavvy_M_EST_3760930","country":"EE","name":"ALEXELA","brand":"ALEXELA","address":"Ringi Tee 1","city":"Juri","lat":59.356511,"lon":24.892489,"source":"anwb.nl (ANWB POI API)","confidence":0.85,"prices":[{"fuel_type":"E5","price":1.509,"currency":"EUR","unit":"L","updated_at":"2026-06-20T10:15:52.516671+00:00"},{"fuel_type":"E10","price":1.76,"currency":"EUR","unit":"L","updated_at":"2026-06-20T10:15:52.516671+00:00"},{"fuel_type":"DIESEL","price":1.735,"currency":"EUR","unit":"L","updated_at":"2026-06-20T10:15:52.516671+00:00"}]},{"id":"ee_xavvy_M_EST_4039946","country":"EE","name":"TERMINAL","brand":"TERMINAL","address":"Leoru Tn 1","city":"Maardu","lat":59.45292,"lon":24.98569,"source":"anwb.nl (ANWB POI API)","confidence":0.85,"prices":[{"fuel_type":"DIESEL","price":1.672,"currency":"EUR","unit":"L","updated_at":"2026-06-20T10:15:52.516671+00:00"}]},{"id":"ee_xavvy_M_EST_4039947","country":"EE","name":"TERMINAL","brand":"TERMINAL","address":"Eidapere Tee 3","city":"Järvakandi","lat":58.7772,"lon":24.81799,"source":"anwb.nl (ANWB POI API)","confidence":0.85,"prices":[{"fuel_type":"E5","price":1.502,"currency":"EUR","unit":"L","updated_at":"2026-06-20T10:15:52.516671+00:00"},{"fuel_type":"E10","price":1.452,"currency":"EUR","unit":"L","updated_at":"2026-06-20T10:15:52.516671+00:00"},{"fuel_type":"DIESEL","price":1.672,"currency":"EUR","unit":"L","updated_at":"2026-06-20T10:15:52.516671+00:00"}]},{"id":"ee_xavvy_M_EST_4090771","country":"EE","name":"TERMINAL","brand":"TERMINAL","address":"Tallinna Mnt 2","city":"Puurmani","lat":58.57675,"lon":26.28904,"source":"anwb.nl (ANWB POI API)","confidence":0.85,"prices":[{"fuel_type":"E5","price":1.502,"currency":"EUR","unit":"L","updated_at":"2026-06-20T10:15:52.516671+00:00"},{"fuel_type":"DIESEL","price":1.672,"currency":"EUR","unit":"L","updated_at":"2026-06-20T10:15:52.516671+00:00"}]},{"id":"ee_xavvy_M_EST_4090793","country":"EE","name":"TERMINAL","brand":"TERMINAL","address":"Sivelloni Str. 1","city":"Jarve","lat":59.409839,"lon":27.309991,"source":"anwb.nl (ANWB POI API)","confidence":0.85,"prices":[{"fuel_type":"DIESEL","price":1.672,"currency":"EUR","unit":"L","updated_at":"2026-06-20T10:15:52.516671+00:00"}]},{"id":"ee_xavvy_M_EST_4090794","country":"EE","name":"TERMINAL","brand":"TERMINAL","address":"Viljandi Mnt 4","city":"Kõpu","lat":58.32674,"lon":25.307563,"source":"anwb.nl (ANWB POI API)","confidence":0.85,"prices":[{"fuel_type":"E10","price":1.499,"currency":"EUR","unit":"L","updated_at":"2026-06-20T10:15:52.516671+00:00"},{"fuel_type":"DIESEL","price":1.672,"currency":"EUR","unit":"L","updated_at":"2026-06-20T10:15:52.516671+00:00"}]},{"id":"ee_xavvy_M_EST_4094460","country":"EE","name":"TERMINAL","brand":"TERMINAL","address":"Puru Tee 5 B","city":"Jõhvi","lat":59.35134,"lon":27.419333,"source":"anwb.nl (ANWB POI API)","confidence":0.85,"prices":[{"fuel_type":"E5","price":1.502,"currency":"EUR","unit":"L","updated_at":"2026-06-20T10:15:52.516671+00:00"},{"fuel_type":"E10","price":1.458,"currency":"EUR","unit":"L","updated_at":"2026-06-20T10:15:52.516671+00:00"},{"fuel_type":"DIESEL","price":1.672,"currency":"EUR","unit":"L","updated_at":"2026-06-20T10:15:52.516671+00:00"}]},{"id":"ee_xavvy_M_EST_413477","country":"EE","name":"NESTE","brand":"NESTE","address":"Ringtee 52","city":"Tartu","lat":58.37496,"lon":26.67828,"source":"anwb.nl (ANWB POI API)","confidence":0.85,"prices":[{"fuel_type":"E10","price":1.618,"currency":"EUR","unit":"L","updated_at":"2026-06-20T10:15:52.516671+00:00"},{"fuel_type":"DIESEL","price":1.734,"currency":"EUR","unit":"L","updated_at":"2026-06-20T10:15:52.516671+00:00"}]},{"id":"ee_xavvy_M_EST_413497","country":"EE","name":"NESTE","brand":"NESTE","address":"Mera Tee 23","city":"Tallinn","lat":59.444558,"lon":24.758567,"source":"anwb.nl (ANWB POI API)","confidence":0.85,"prices":[{"fuel_type":"DIESEL","price":1.959,"currency":"EUR","unit":"L","updated_at":"2026-06-20T10:15:52.516671+00:00"}]},{"id":"ee_xavvy_M_EST_413551","country":"EE","name":"CIRCLE K","brand":"CIRCLE K","address":"Narva Mnt 21","city":"Tartu","lat":58.381954,"lon":26.728411,"source":"anwb.nl (ANWB POI API)","confidence":0.85,"prices":[{"fuel_type":"E10","price":1.619,"currency":"EUR","unit":"L","updated_at":"2026-06-20T10:15:52.516671+00:00"},{"fuel_type":"DIESEL","price":1.849,"currency":"EUR","unit":"L","updated_at":"2026-06-20T10:15:52.516671+00:00"}]},{"id":"ee_xavvy_M_EST_4469119","country":"EE","name":"ALEXELA","brand":"ALEXELA","address":"Kosenomme 17","city":"Aegviidu Alev","lat":59.29809,"lon":25.613609,"source":"anwb.nl (ANWB POI API)","confidence":0.85,"prices":[{"fuel_type":"DIESEL","price":1.735,"currency":"EUR","unit":"L","updated_at":"2026-06-20T10:15:52.516671+00:00"}]},{"id":"ee_xavvy_M_EST_4469123","country":"EE","name":"ALEXELA","brand":"ALEXELA","address":"Westmeri 3","city":"Haapsalu","lat":58.958065,"lon":23.524106,"source":"anwb.nl (ANWB POI API)","confidence":0.85,"prices":[{"fuel_type":"DIESEL","price":1.735,"currency":"EUR","unit":"L","updated_at":"2026-06-20T10:15:52.516671+00:00"}]},{"id":"ee_xavvy_M_EST_4469125","country":"EE","name":"ALEXELA","brand":"ALEXELA","address":"Alutaguse Vald","city":"Illuka Kula","lat":59.219095,"lon":27.513244,"source":"anwb.nl (ANWB POI API)","confidence":0.85,"prices":[{"fuel_type":"DIESEL","price":1.735,"currency":"EUR","unit":"L","updated_at":"2026-06-20T10:15:52.516671+00:00"}]},{"id":"ee_xavvy_M_EST_4469129","country":"EE","name":"ALEXELA","brand":"ALEXELA","address":"Kordoni Tee 20","city":"Kaberneeme Kula","lat":59.519924,"lon":25.274002,"source":"anwb.nl (ANWB POI API)","confidence":0.85,"prices":[{"fuel_type":"DIESEL","price":1.735,"currency":"EUR","unit":"L","updated_at":"2026-06-20T10:15:52.516671+00:00"}]},{"id":"ee_xavvy_M_EST_4469130","country":"EE","name":"ALEXELA","brand":"ALEXELA","address":"Haapsalu Mnt 62","city":"Keila","lat":59.307911,"lon":24.397909,"source":"anwb.nl (ANWB POI API)","confidence":0.85,"prices":[{"fuel_type":"E5","price":1.519,"currency":"EUR","unit":"L","updated_at":"2026-06-20T10:15:52.516671+00:00"},{"fuel_type":"E10","price":1.724,"currency":"EUR","unit":"L","updated_at":"2026-06-20T10:15:52.516671+00:00"},{"fuel_type":"DIESEL","price":1.735,"currency":"EUR","unit":"L","updated_at":"2026-06-20T10:15:52.516671+00:00"}]},{"id":"ee_xavvy_M_EST_4469131","country":"EE","name":"ALEXELA","brand":"ALEXELA","address":"Paide Tee 31","city":"Koeru Alevik","lat":58.957427,"lon":26.009896,"source":"anwb.nl (ANWB POI API)","confidence":0.85,"prices":[{"fuel_type":"E10","price":1.533,"currency":"EUR","unit":"L","updated_at":"2026-06-20T10:15:52.516671+00:00"},{"fuel_type":"DIESEL","price":1.735,"currency":"EUR","unit":"L","updated_at":"2026-06-20T10:15:52.516671+00:00"}]},{"id":"ee_xavvy_M_EST_4469133","country":"EE","name":"ALEXELA","brand":"ALEXELA","address":"Ujula 10","city":"Kose Alevik","lat":59.184743,"lon":25.15903,"source":"anwb.nl (ANWB POI API)","confidence":0.85,"prices":[{"fuel_type":"E5","price":1.628,"currency":"EUR","unit":"L","updated_at":"2026-06-20T10:15:52.516671+00:00"},{"fuel_type":"E10","price":1.882,"currency":"EUR","unit":"L","updated_at":"2026-06-20T10:15:52.516671+00:00"},{"fuel_type":"DIESEL","price":1.735,"currency":"EUR","unit":"L","updated_at":"2026-06-20T10:15:52.516671+00:00"}]},{"id":"ee_xavvy_M_EST_4469138","country":"EE","name":"ALEXELA","brand":"ALEXELA","address":"Muhu Vald","city":"Simisti Kula","lat":58.541261,"lon":23.315751,"source":"anwb.nl (ANWB POI API)","confidence":0.85,"prices":[{"fuel_type":"DIESEL","price":1.735,"currency":"EUR","unit":"L","updated_at":"2026-06-20T10:15:52.516671+00:00"}]},{"id":"ee_xavvy_M_EST_4469144","country":"EE","name":"ALEXELA","brand":"ALEXELA","address":"Lootsi 1","city":"Parnu","lat":58.386885,"lon":24.49074,"source":"anwb.nl (ANWB POI API)","confidence":0.85,"prices":[{"fuel_type":"DIESEL","price":1.735,"currency":"EUR","unit":"L","updated_at":"2026-06-20T10:15:52.516671+00:00"}]},{"id":"ee_xavvy_M_EST_4469152","country":"EE","name":"ALEXELA","brand":"ALEXELA","address":"Sadama","city":"Soela Kula","lat":58.617778,"lon":22.592525,"source":"anwb.nl (ANWB POI API)","confidence":0.85,"prices":[{"fuel_type":"DIESEL","price":1.735,"currency":"EUR","unit":"L","updated_at":"2026-06-20T10:15:52.516671+00:00"}]},{"id":"ee_xavvy_M_EST_4469179","country":"EE","name":"ALEXELA","brand":"ALEXELA","address":"Rohuaia 1a","city":"Loksa","lat":59.580131,"lon":25.726038,"source":"anwb.nl (ANWB POI API)","confidence":0.85,"prices":[{"fuel_type":"E10","price":1.669,"currency":"EUR","unit":"L","updated_at":"2026-06-20T10:15:52.516671+00:00"},{"fuel_type":"DIESEL","price":1.735,"currency":"EUR","unit":"L","updated_at":"2026-06-20T10:15:52.516671+00:00"}]},{"id":"ee_xavvy_M_EST_4469183","country":"EE","name":"ALEXELA","brand":"ALEXELA","address":"Neeme Sadam, Neeme Kla","city":"Neeme Kula","lat":59.531706,"lon":25.158429,"source":"anwb.nl (ANWB POI API)","confidence":0.85,"prices":[{"fuel_type":"DIESEL","price":1.735,"currency":"EUR","unit":"L","updated_at":"2026-06-20T10:15:52.516671+00:00"}]},{"id":"ee_xavvy_M_EST_4469186","country":"EE","name":"ALEXELA","brand":"ALEXELA","address":"Lilleoru Tee 2","city":"Laiakula","lat":59.462317,"lon":24.904944,"source":"anwb.nl (ANWB POI API)","confidence":0.85,"prices":[{"fuel_type":"E10","price":1.639,"currency":"EUR","unit":"L","updated_at":"2026-06-20T10:15:52.516671+00:00"},{"fuel_type":"DIESEL","price":1.735,"currency":"EUR","unit":"L","updated_at":"2026-06-20T10:15:52.516671+00:00"}]},{"id":"ee_xavvy_M_EST_4469188","country":"EE","name":"ALEXELA","brand":"ALEXELA","address":"Rannarootsi Tee 2","city":"Haapsalu","lat":58.936726,"lon":23.569232,"source":"anwb.nl (ANWB POI API)","confidence":0.85,"prices":[{"fuel_type":"E10","price":1.571,"currency":"EUR","unit":"L","updated_at":"2026-06-20T10:15:52.516671+00:00"},{"fuel_type":"E5","price":1.621,"currency":"EUR","unit":"L","updated_at":"2026-06-20T10:15:52.516671+00:00"},{"fuel_type":"DIESEL","price":1.735,"currency":"EUR","unit":"L","updated_at":"2026-06-20T10:15:52.516671+00:00"}]},{"id":"ee_xavvy_M_EST_4469189","country":"EE","name":"ALEXELA","brand":"ALEXELA","address":"Viljandi Mnt 36a","city":"Tallinn","lat":59.362436,"lon":24.763567,"source":"anwb.nl (ANWB POI API)","confidence":0.85,"prices":[{"fuel_type":"E5","price":1.624,"currency":"EUR","unit":"L","updated_at":"2026-06-20T10:15:52.516671+00:00"},{"fuel_type":"E10","price":1.529,"currency":"EUR","unit":"L","updated_at":"2026-06-20T10:15:52.516671+00:00"},{"fuel_type":"DIESEL","price":1.735,"currency":"EUR","unit":"L","updated_at":"2026-06-20T10:15:52.516671+00:00"}]},{"id":"ee_xavvy_M_EST_4469193","country":"EE","name":"ALEXELA","brand":"ALEXELA","address":"Ranna Tee 14","city":"Tabasalu Alevik","lat":59.422001,"lon":24.538566,"source":"anwb.nl (ANWB POI API)","confidence":0.85,"prices":[{"fuel_type":"E10","price":1.629,"currency":"EUR","unit":"L","updated_at":"2026-06-20T10:15:52.516671+00:00"},{"fuel_type":"DIESEL","price":1.735,"currency":"EUR","unit":"L","updated_at":"2026-06-20T10:15:52.516671+00:00"}]},{"id":"ee_xavvy_M_EST_4469197","country":"EE","name":"ALEXELA","brand":"ALEXELA","address":"A. Maramaa Pst 15","city":"Viljandi","lat":58.370649,"lon":25.598156,"source":"anwb.nl (ANWB POI API)","confidence":0.85,"prices":[{"fuel_type":"E5","price":1.634,"currency":"EUR","unit":"L","updated_at":"2026-06-20T10:15:52.516671+00:00"},{"fuel_type":"E10","price":1.584,"currency":"EUR","unit":"L","updated_at":"2026-06-20T10:15:52.516671+00:00"},{"fuel_type":"DIESEL","price":1.735,"currency":"EUR","unit":"L","updated_at":"2026-06-20T10:15:52.516671+00:00"}]},{"id":"ee_xavvy_M_EST_4469198","country":"EE","name":"ALEXELA","brand":"ALEXELA","address":"Viti Tankla","city":"Viti Kula","lat":59.445642,"lon":24.380862,"source":"anwb.nl (ANWB POI API)","confidence":0.85,"prices":[{"fuel_type":"E5","price":1.669,"currency":"EUR","unit":"L","updated_at":"2026-06-20T10:15:52.516671+00:00"},{"fuel_type":"E10","price":1.729,"currency":"EUR","unit":"L","updated_at":"2026-06-20T10:15:52.516671+00:00"},{"fuel_type":"DIESEL","price":1.735,"currency":"EUR","unit":"L","updated_at":"2026-06-20T10:15:52.516671+00:00"}]},{"id":"ee_xavvy_M_EST_4469199","country":"EE","name":"ALEXELA","brand":"ALEXELA","address":"Harutee Tankla","city":"Aasmae Kula","lat":59.243342,"lon":24.490958,"source":"anwb.nl (ANWB POI API)","confidence":0.85,"prices":[{"fuel_type":"E5","price":1.624,"currency":"EUR","unit":"L","updated_at":"2026-06-20T10:15:52.516671+00:00"},{"fuel_type":"E10","price":1.85,"currency":"EUR","unit":"L","updated_at":"2026-06-20T10:15:52.516671+00:00"},{"fuel_type":"DIESEL","price":1.735,"currency":"EUR","unit":"L","updated_at":"2026-06-20T10:15:52.516671+00:00"}]},{"id":"ee_xavvy_M_EST_4469202","country":"EE","name":"ALEXELA","brand":"ALEXELA","address":"Lee Tee 1a","city":"Muraste Kula","lat":59.454536,"lon":24.443713,"source":"anwb.nl (ANWB POI API)","confidence":0.85,"prices":[{"fuel_type":"E10","price":1.599,"currency":"EUR","unit":"L","updated_at":"2026-06-20T10:15:52.516671+00:00"},{"fuel_type":"DIESEL","price":1.735,"currency":"EUR","unit":"L","updated_at":"2026-06-20T10:15:52.516671+00:00"}]},{"id":"ee_xavvy_M_EST_4469203","country":"EE","name":"ALEXELA","brand":"ALEXELA","address":"Tankla, Saaremaa Vald","city":"Montu Kula","lat":57.949535,"lon":22.119889,"source":"anwb.nl (ANWB POI API)","confidence":0.85,"prices":[{"fuel_type":"DIESEL","price":1.735,"currency":"EUR","unit":"L","updated_at":"2026-06-20T10:15:52.516671+00:00"}]},{"id":"ee_xavvy_M_EST_4469204","country":"EE","name":"ALEXELA","brand":"ALEXELA","address":"Kauge 2","city":"Tallinn","lat":59.371493,"lon":24.716599,"source":"anwb.nl (ANWB POI API)","confidence":0.85,"prices":[{"fuel_type":"E10","price":1.567,"currency":"EUR","unit":"L","updated_at":"2026-06-20T10:15:52.516671+00:00"},{"fuel_type":"E5","price":1.617,"currency":"EUR","unit":"L","updated_at":"2026-06-20T10:15:52.516671+00:00"},{"fuel_type":"DIESEL","price":1.735,"currency":"EUR","unit":"L","updated_at":"2026-06-20T10:15:52.516671+00:00"}]},{"id":"ee_xavvy_M_EST_4469210","country":"EE","name":"ALEXELA","brand":"ALEXELA","address":"J. Koorti 20","city":"Tallinn","lat":59.440028,"lon":24.830421,"source":"anwb.nl (ANWB POI API)","confidence":0.85,"prices":[{"fuel_type":"E5","price":1.519,"currency":"EUR","unit":"L","updated_at":"2026-06-20T10:15:52.516671+00:00"},{"fuel_type":"E10","price":1.794,"currency":"EUR","unit":"L","updated_at":"2026-06-20T10:15:52.516671+00:00"},{"fuel_type":"DIESEL","price":1.735,"currency":"EUR","unit":"L","updated_at":"2026-06-20T10:15:52.516671+00:00"}]},{"id":"ee_xavvy_M_EST_4469242","country":"EE","name":"ALEXELA","brand":"ALEXELA","address":"Tallinna Mnt 43","city":"Narva","lat":59.38135,"lon":28.173357,"source":"anwb.nl (ANWB POI API)","confidence":0.85,"prices":[{"fuel_type":"E10","price":1.729,"currency":"EUR","unit":"L","updated_at":"2026-06-20T10:15:52.516671+00:00"},{"fuel_type":"DIESEL","price":1.735,"currency":"EUR","unit":"L","updated_at":"2026-06-20T10:15:52.516671+00:00"}]},{"id":"ee_xavvy_M_EST_4578745","country":"EE","name":"CIRCLE K","brand":"CIRCLE K","address":"Risti 1","city":"Rapla Vald","lat":59.011093,"lon":24.796743,"source":"anwb.nl (ANWB POI API)","confidence":0.85,"prices":[{"fuel_type":"E10","price":1.768,"currency":"EUR","unit":"L","updated_at":"2026-06-20T10:15:52.516671+00:00"},{"fuel_type":"DIESEL","price":1.849,"currency":"EUR","unit":"L","updated_at":"2026-06-20T10:15:52.516671+00:00"}]},{"id":"ee_xavvy_M_EST_4660118","country":"EE","name":"OLEREX","brand":"OLEREX","address":"Valjakula","city":"Kilingi-Nomme","lat":58.157729,"lon":24.992475,"source":"anwb.nl (ANWB POI API)","confidence":0.85,"prices":[{"fuel_type":"E10","price":1.729,"currency":"EUR","unit":"L","updated_at":"2026-06-20T10:15:52.516671+00:00"},{"fuel_type":"DIESEL","price":1.685,"currency":"EUR","unit":"L","updated_at":"2026-06-20T10:15:52.516671+00:00"}]},{"id":"ee_xavvy_M_EST_4935","country":"EE","name":"CIRCLE K","brand":"CIRCLE K","address":"Ülejoe Tee 1","city":"Keila","lat":59.311202,"lon":24.437925,"source":"anwb.nl (ANWB POI API)","confidence":0.85,"prices":[{"fuel_type":"E10","price":1.76,"currency":"EUR","unit":"L","updated_at":"2026-06-20T10:15:52.516671+00:00"},{"fuel_type":"DIESEL","price":1.755,"currency":"EUR","unit":"L","updated_at":"2026-06-20T10:15:52.516671+00:00"}]},{"id":"ee_xavvy_M_EST_4936","country":"EE","name":"CIRCLE K","brand":"CIRCLE K","address":"Katusepapi Tee 37","city":"Tallinn","lat":59.425323,"lon":24.793045,"source":"anwb.nl (ANWB POI API)","confidence":0.85,"prices":[{"fuel_type":"E10","price":1.699,"currency":"EUR","unit":"L","updated_at":"2026-06-20T10:15:52.516671+00:00"},{"fuel_type":"DIESEL","price":1.714,"currency":"EUR","unit":"L","updated_at":"2026-06-20T10:15:52.516671+00:00"}]},{"id":"ee_xavvy_M_EST_4937","country":"EE","name":"CIRCLE K","brand":"CIRCLE K","address":"Järvevana Tee 2","city":"Tallinn","lat":59.422808,"lon":24.786431,"source":"anwb.nl (ANWB POI API)","confidence":0.85,"prices":[{"fuel_type":"DIESEL","price":1.819,"currency":"EUR","unit":"L","updated_at":"2026-06-20T10:15:52.516671+00:00"},{"fuel_type":"E10","price":1.679,"currency":"EUR","unit":"L","updated_at":"2026-06-20T10:15:52.516671+00:00"}]},{"id":"ee_xavvy_M_EST_4938","country":"EE","name":"CIRCLE K","brand":"CIRCLE K","address":"Pärnu Mnt 180b","city":"Tallinn","lat":59.402489,"lon":24.728663,"source":"anwb.nl (ANWB POI API)","confidence":0.85,"prices":[{"fuel_type":"E10","price":1.829,"currency":"EUR","unit":"L","updated_at":"2026-06-20T10:15:52.516671+00:00"},{"fuel_type":"DIESEL","price":1.714,"currency":"EUR","unit":"L","updated_at":"2026-06-20T10:15:52.516671+00:00"}]},{"id":"ee_xavvy_M_EST_4939","country":"EE","name":"CIRCLE K","brand":"CIRCLE K","address":"Rakvere 40","city":"Jõhvi Linn","lat":59.367472,"lon":27.393827,"source":"anwb.nl (ANWB POI API)","confidence":0.85,"prices":[{"fuel_type":"E10","price":1.409,"currency":"EUR","unit":"L","updated_at":"2026-06-20T10:15:52.516671+00:00"},{"fuel_type":"DIESEL","price":1.939,"currency":"EUR","unit":"L","updated_at":"2026-06-20T10:15:52.516671+00:00"}]},{"id":"ee_xavvy_M_EST_4940","country":"EE","name":"CIRCLE K","brand":"CIRCLE K","address":"Endla 52","city":"Tallinn","lat":59.427919,"lon":24.719329,"source":"anwb.nl (ANWB POI API)","confidence":0.85,"prices":[{"fuel_type":"E10","price":1.494,"currency":"EUR","unit":"L","updated_at":"2026-06-20T10:15:52.516671+00:00"},{"fuel_type":"DIESEL","price":1.949,"currency":"EUR","unit":"L","updated_at":"2026-06-20T10:15:52.516671+00:00"}]},{"id":"ee_xavvy_M_EST_514826","country":"EE","name":"CIRCLE K","brand":"CIRCLE K","address":"Pikk Tn 21a","city":"Võru Linn","lat":57.832666,"lon":27.034389,"source":"anwb.nl (ANWB POI API)","confidence":0.85,"prices":[{"fuel_type":"E10","price":1.504,"currency":"EUR","unit":"L","updated_at":"2026-06-20T10:15:52.516671+00:00"},{"fuel_type":"DIESEL","price":1.859,"currency":"EUR","unit":"L","updated_at":"2026-06-20T10:15:52.516671+00:00"}]},{"id":"ee_xavvy_M_EST_514827","country":"EE","name":"CIRCLE K","brand":"CIRCLE K","address":"Astelpaju 2a","city":"Tartu","lat":58.40674,"lon":26.709443,"source":"anwb.nl (ANWB POI API)","confidence":0.85,"prices":[{"fuel_type":"E10","price":1.779,"currency":"EUR","unit":"L","updated_at":"2026-06-20T10:15:52.516671+00:00"},{"fuel_type":"DIESEL","price":1.844,"currency":"EUR","unit":"L","updated_at":"2026-06-20T10:15:52.516671+00:00"}]},{"id":"ee_xavvy_M_EST_514831","country":"EE","name":"CIRCLE K","brand":"CIRCLE K","address":"Tallinna Mnt 84","city":"Pärnu Linn","lat":58.410625,"lon":24.493019,"source":"anwb.nl (ANWB POI API)","confidence":0.85,"prices":[{"fuel_type":"E10","price":1.769,"currency":"EUR","unit":"L","updated_at":"2026-06-20T10:15:52.516671+00:00"},{"fuel_type":"DIESEL","price":1.989,"currency":"EUR","unit":"L","updated_at":"2026-06-20T10:15:52.516671+00:00"}]},{"id":"ee_xavvy_M_EST_514832","country":"EE","name":"CIRCLE K","brand":"CIRCLE K","address":"Arumetsa, Hdemeeste Vald","city":"Arumetsa Küla","lat":58.074684,"lon":24.512587,"source":"anwb.nl (ANWB POI API)","confidence":0.85,"prices":[{"fuel_type":"E10","price":1.799,"currency":"EUR","unit":"L","updated_at":"2026-06-20T10:15:52.516671+00:00"},{"fuel_type":"DIESEL","price":1.714,"currency":"EUR","unit":"L","updated_at":"2026-06-20T10:15:52.516671+00:00"}]},{"id":"ee_xavvy_M_EST_514872","country":"EE","name":"CIRCLE K","brand":"CIRCLE K","address":"Märjandi","city":"Märjandi Küla","lat":59.17918,"lon":25.761134,"source":"anwb.nl (ANWB POI API)","confidence":0.85,"prices":[{"fuel_type":"DIESEL","price":1.789,"currency":"EUR","unit":"L","updated_at":"2026-06-20T10:15:52.516671+00:00"},{"fuel_type":"E10","price":1.798,"currency":"EUR","unit":"L","updated_at":"2026-06-20T10:15:52.516671+00:00"}]},{"id":"ee_xavvy_M_EST_514987","country":"EE","name":"CIRCLE K","brand":"CIRCLE K","address":"Rakvere Mnt 26","city":"Haljala Alevik","lat":59.426755,"lon":26.269213,"source":"anwb.nl (ANWB POI API)","confidence":0.85,"prices":[{"fuel_type":"E10","price":1.499,"currency":"EUR","unit":"L","updated_at":"2026-06-20T10:15:52.516671+00:00"},{"fuel_type":"DIESEL","price":1.839,"currency":"EUR","unit":"L","updated_at":"2026-06-20T10:15:52.516671+00:00"}]},{"id":"ee_xavvy_M_EST_514991","country":"EE","name":"CIRCLE K","brand":"CIRCLE K","address":"Kalevi Tn 43","city":"Kohtla-Järve","lat":59.410002,"lon":27.278034,"source":"anwb.nl (ANWB POI API)","confidence":0.85,"prices":[{"fuel_type":"E10","price":1.549,"currency":"EUR","unit":"L","updated_at":"2026-06-20T10:15:52.516671+00:00"},{"fuel_type":"DIESEL","price":1.819,"currency":"EUR","unit":"L","updated_at":"2026-06-20T10:15:52.516671+00:00"}]},{"id":"ee_xavvy_M_EST_514996","country":"EE","name":"CIRCLE K","brand":"CIRCLE K","address":"Tartu Mnt 26","city":"Jõhvi Linn","lat":59.351225,"lon":27.407994,"source":"anwb.nl (ANWB POI API)","confidence":0.85,"prices":[{"fuel_type":"E10","price":1.769,"currency":"EUR","unit":"L","updated_at":"2026-06-20T10:15:52.516671+00:00"},{"fuel_type":"DIESEL","price":1.844,"currency":"EUR","unit":"L","updated_at":"2026-06-20T10:15:52.516671+00:00"}]},{"id":"ee_xavvy_M_EST_518232","country":"EE","name":"CIRCLE K","brand":"CIRCLE K","address":"Narva Mnt 147","city":"Jõhvi Linn","lat":59.362551,"lon":27.462187,"source":"anwb.nl (ANWB POI API)","confidence":0.85,"prices":[{"fuel_type":"E10","price":1.679,"currency":"EUR","unit":"L","updated_at":"2026-06-20T10:15:52.516671+00:00"},{"fuel_type":"DIESEL","price":1.849,"currency":"EUR","unit":"L","updated_at":"2026-06-20T10:15:52.516671+00:00"}]},{"id":"ee_xavvy_M_EST_518294","country":"EE","name":"CIRCLE K","brand":"CIRCLE K","address":"Kesk Tn 43","city":"Põlva Linn","lat":58.051887,"lon":27.041795,"source":"anwb.nl (ANWB POI API)","confidence":0.85,"prices":[{"fuel_type":"E10","price":1.499,"currency":"EUR","unit":"L","updated_at":"2026-06-20T10:15:52.516671+00:00"},{"fuel_type":"DIESEL","price":1.989,"currency":"EUR","unit":"L","updated_at":"2026-06-20T10:15:52.516671+00:00"}]},{"id":"ee_xavvy_M_EST_518398","country":"EE","name":"CIRCLE K","brand":"CIRCLE K","address":"Haapsalu Mnt 43 A","city":"Papsaare Küla","lat":58.395779,"lon":24.456343,"source":"anwb.nl (ANWB POI API)","confidence":0.85,"prices":[{"fuel_type":"E10","price":1.594,"currency":"EUR","unit":"L","updated_at":"2026-06-20T10:15:52.516671+00:00"},