{"meta":{"country":"PL","currency":"PLN","source":"anwb.nl (ANWB POI API)","confidence":0.85,"fetched_at":"2026-06-24T18:21:23.780150+00:00","station_count":5310},"stations":[{"id":"pl_xavvy_M_POL_10133","country":"PL","name":"BP","brand":"BP","address":"Kolonia Laszczowka 34","city":"Tomaszw Lubelski","lat":50.427066,"lon":23.422144,"source":"anwb.nl (ANWB POI API)","confidence":0.85,"prices":[{"fuel_type":"E10","price":1.413,"currency":"EUR","unit":"L","updated_at":"2026-06-24T18:13:16.821720+00:00"},{"fuel_type":"DIESEL","price":1.46,"currency":"EUR","unit":"L","updated_at":"2026-06-24T18:13:16.821720+00:00"}]},{"id":"pl_xavvy_M_POL_10140667","country":"PL","name":"MIXPOL","brand":"MIXPOL","address":"Ul. Grunwaldzka 34","city":"Milowka","lat":49.560546,"lon":19.084025,"source":"anwb.nl (ANWB POI API)","confidence":0.85,"prices":[{"fuel_type":"DIESEL","price":1.35,"currency":"EUR","unit":"L","updated_at":"2026-06-24T18:13:16.821720+00:00"},{"fuel_type":"E10","price":1.352,"currency":"EUR","unit":"L","updated_at":"2026-06-24T18:13:16.821720+00:00"}]},{"id":"pl_xavvy_M_POL_10140677","country":"PL","name":"MIXPOL","brand":"MIXPOL","address":"Al. Wolnosci 34","city":"Zywiec","lat":49.693305,"lon":19.193947,"source":"anwb.nl (ANWB POI API)","confidence":0.85,"prices":[{"fuel_type":"E10","price":1.364,"currency":"EUR","unit":"L","updated_at":"2026-06-24T18:13:16.821720+00:00"},{"fuel_type":"DIESEL","price":1.35,"currency":"EUR","unit":"L","updated_at":"2026-06-24T18:13:16.821720+00:00"}]},{"id":"pl_xavvy_M_POL_10140684","country":"PL","name":"MIXPOL","brand":"MIXPOL","address":"Ul.Pszczynska","city":"Wola","lat":50.010053,"lon":19.096845,"source":"anwb.nl (ANWB POI API)","confidence":0.85,"prices":[{"fuel_type":"E10","price":1.472,"currency":"EUR","unit":"L","updated_at":"2026-06-24T18:13:16.821720+00:00"},{"fuel_type":"DIESEL","price":1.457,"currency":"EUR","unit":"L","updated_at":"2026-06-24T18:13:16.821720+00:00"}]},{"id":"pl_xavvy_M_POL_10140686","country":"PL","name":"E100","brand":"E100","address":"Raciborska 64","city":"Gorzyczki","lat":49.946039,"lon":18.410363,"source":"anwb.nl (ANWB POI API)","confidence":0.85,"prices":[{"fuel_type":"DIESEL","price":1.35,"currency":"EUR","unit":"L","updated_at":"2026-06-24T18:13:16.821720+00:00"}]},{"id":"pl_xavvy_M_POL_10140697","country":"PL","name":"MIXPOL","brand":"MIXPOL","address":"Kasztanowa 33","city":"Lodygowice","lat":49.715504,"lon":19.138983,"source":"anwb.nl (ANWB POI API)","confidence":0.85,"prices":[{"fuel_type":"E10","price":1.472,"currency":"EUR","unit":"L","updated_at":"2026-06-24T18:13:16.821720+00:00"},{"fuel_type":"DIESEL","price":1.35,"currency":"EUR","unit":"L","updated_at":"2026-06-24T18:13:16.821720+00:00"}]},{"id":"pl_xavvy_M_POL_10140711","country":"PL","name":"MIXPOL","brand":"MIXPOL","address":"Ul. Magazynowa 2","city":"Lodygowice","lat":49.726374,"lon":19.136337,"source":"anwb.nl (ANWB POI API)","confidence":0.85,"prices":[{"fuel_type":"DIESEL","price":1.35,"currency":"EUR","unit":"L","updated_at":"2026-06-24T18:13:16.821720+00:00"}]},{"id":"pl_xavvy_M_POL_10140713","country":"PL","name":"ORLEN","brand":"ORLEN","address":"Walbrzyska 17a","city":"Boguszow-Gorce","lat":50.75764,"lon":16.2131,"source":"anwb.nl (ANWB POI API)","confidence":0.85,"prices":[{"fuel_type":"DIESEL","price":1.42,"currency":"EUR","unit":"L","updated_at":"2026-06-24T18:13:16.821720+00:00"},{"fuel_type":"E10","price":1.394,"currency":"EUR","unit":"L","updated_at":"2026-06-24T18:13:16.821720+00:00"}]},{"id":"pl_xavvy_M_POL_10140722","country":"PL","name":"MOYA","brand":"MOYA","address":"Krakowska 36d","city":"Sandomierz","lat":50.673124,"lon":21.738114,"source":"anwb.nl (ANWB POI API)","confidence":0.85,"prices":[{"fuel_type":"DIESEL","price":1.35,"currency":"EUR","unit":"L","updated_at":"2026-06-24T18:13:16.821720+00:00"},{"fuel_type":"E10","price":1.35,"currency":"EUR","unit":"L","updated_at":"2026-06-24T18:13:16.821720+00:00"}]},{"id":"pl_xavvy_M_POL_10157104","country":"PL","name":"BP","brand":"BP","address":"Bernarda Milskiego 1","city":"Gdansk","lat":54.33778,"lon":18.60285,"source":"anwb.nl (ANWB POI API)","confidence":0.85,"prices":[{"fuel_type":"DIESEL","price":1.425,"currency":"EUR","unit":"L","updated_at":"2026-06-24T18:13:16.821720+00:00"},{"fuel_type":"E10","price":1.383,"currency":"EUR","unit":"L","updated_at":"2026-06-24T18:13:16.821720+00:00"}]},{"id":"pl_xavvy_M_POL_10157105","country":"PL","name":"BP","brand":"BP","address":"Franciszka Rakoczego 15","city":"Gdansk","lat":54.358127,"lon":18.583819,"source":"anwb.nl (ANWB POI API)","confidence":0.85,"prices":[{"fuel_type":"E10","price":1.383,"currency":"EUR","unit":"L","updated_at":"2026-06-24T18:13:16.821720+00:00"},{"fuel_type":"DIESEL","price":1.425,"currency":"EUR","unit":"L","updated_at":"2026-06-24T18:13:16.821720+00:00"}]},{"id":"pl_xavvy_M_POL_10157106","country":"PL","name":"BP","brand":"BP","address":"Aleja Górnośląska 40","city":"Katowice","lat":50.245128,"lon":19.030554,"source":"anwb.nl (ANWB POI API)","confidence":0.85,"prices":[{"fuel_type":"DIESEL","price":1.425,"currency":"EUR","unit":"L","updated_at":"2026-06-24T18:13:16.821720+00:00"},{"fuel_type":"E10","price":1.383,"currency":"EUR","unit":"L","updated_at":"2026-06-24T18:13:16.821720+00:00"}]},{"id":"pl_xavvy_M_POL_10167","country":"PL","name":"BP","brand":"BP","address":"Jana Matejki 6","city":"Grodzisk Mazowiecki","lat":52.11555,"lon":20.623571,"source":"anwb.nl (ANWB POI API)","confidence":0.85,"prices":[{"fuel_type":"E10","price":1.383,"currency":"EUR","unit":"L","updated_at":"2026-06-24T18:13:16.821720+00:00"},{"fuel_type":"DIESEL","price":1.425,"currency":"EUR","unit":"L","updated_at":"2026-06-24T18:13:16.821720+00:00"}]},{"id":"pl_xavvy_M_POL_10167682","country":"PL","name":"MOYA","brand":"MOYA","address":"Ul. Gliwicka 3","city":"Zernica","lat":50.24846,"lon":18.623468,"source":"anwb.nl (ANWB POI API)","confidence":0.85,"prices":[{"fuel_type":"DIESEL","price":1.35,"currency":"EUR","unit":"L","updated_at":"2026-06-24T18:13:16.821720+00:00"},{"fuel_type":"E10","price":1.35,"currency":"EUR","unit":"L","updated_at":"2026-06-24T18:13:16.821720+00:00"}]},{"id":"pl_xavvy_M_POL_10167686","country":"PL","name":"OLKOP","brand":"OLKOP","address":"Otoczynska 111a","city":"Kwidzyn","lat":53.729785,"lon":19.042685,"source":"anwb.nl (ANWB POI API)","confidence":0.85,"prices":[{"fuel_type":"DIESEL","price":1.35,"currency":"EUR","unit":"L","updated_at":"2026-06-24T18:13:16.821720+00:00"}]},{"id":"pl_xavvy_M_POL_10167712","country":"PL","name":"FORCAR","brand":"FORCAR","address":"Ludzmierska 26a","city":"Nowy Targ","lat":49.474155,"lon":20.009865,"source":"anwb.nl (ANWB POI API)","confidence":0.85,"prices":[{"fuel_type":"DIESEL","price":1.422,"currency":"EUR","unit":"L","updated_at":"2026-06-24T18:13:16.821720+00:00"},{"fuel_type":"E10","price":1.394,"currency":"EUR","unit":"L","updated_at":"2026-06-24T18:13:16.821720+00:00"}]},{"id":"pl_xavvy_M_POL_10167713","country":"PL","name":"MOYA","brand":"MOYA","address":"Sieradzka 122c","city":"Wieluń","lat":51.23866,"lon":18.559278,"source":"anwb.nl (ANWB POI API)","confidence":0.85,"prices":[{"fuel_type":"DIESEL","price":1.35,"currency":"EUR","unit":"L","updated_at":"2026-06-24T18:13:16.821720+00:00"}]},{"id":"pl_xavvy_M_POL_10167745","country":"PL","name":"MOYA","brand":"MOYA","address":"Lopon 192","city":"Wojnicz","lat":49.960843,"lon":20.788417,"source":"anwb.nl (ANWB POI API)","confidence":0.85,"prices":[{"fuel_type":"E10","price":1.355,"currency":"EUR","unit":"L","updated_at":"2026-06-24T18:13:16.821720+00:00"},{"fuel_type":"DIESEL","price":1.35,"currency":"EUR","unit":"L","updated_at":"2026-06-24T18:13:16.821720+00:00"}]},{"id":"pl_xavvy_M_POL_10167747","country":"PL","name":"ORLEN","brand":"ORLEN","address":"Katowicka 3","city":"Rawa Mazowiecka","lat":51.750718,"lon":20.243115,"source":"anwb.nl (ANWB POI API)","confidence":0.85,"prices":[{"fuel_type":"E10","price":1.387,"currency":"EUR","unit":"L","updated_at":"2026-06-24T18:13:16.821720+00:00"},{"fuel_type":"DIESEL","price":1.35,"currency":"EUR","unit":"L","updated_at":"2026-06-24T18:13:16.821720+00:00"}]},{"id":"pl_xavvy_M_POL_10167748","country":"PL","name":"CEL","brand":"CEL","address":"Poznanska 17","city":"Czapury","lat":52.328164,"lon":16.910702,"source":"anwb.nl (ANWB POI API)","confidence":0.85,"prices":[{"fuel_type":"E10","price":1.378,"currency":"EUR","unit":"L","updated_at":"2026-06-24T18:13:16.821720+00:00"},{"fuel_type":"DIESEL","price":1.408,"currency":"EUR","unit":"L","updated_at":"2026-06-24T18:13:16.821720+00:00"}]},{"id":"pl_xavvy_M_POL_10167768","country":"PL","name":"MIXPOL","brand":"MIXPOL","address":"Ul.Ignacego Daszynskiego 49","city":"Bielsko-Biala","lat":49.84933,"lon":19.050394,"source":"anwb.nl (ANWB POI API)","confidence":0.85,"prices":[{"fuel_type":"DIESEL","price":1.35,"currency":"EUR","unit":"L","updated_at":"2026-06-24T18:13:16.821720+00:00"}]},{"id":"pl_xavvy_M_POL_10167769","country":"PL","name":"MOYA","brand":"MOYA","address":"Ul. Grodziecka 1","city":"Rychwal","lat":52.066964,"lon":18.161867,"source":"anwb.nl (ANWB POI API)","confidence":0.85,"prices":[{"fuel_type":"DIESEL","price":1.35,"currency":"EUR","unit":"L","updated_at":"2026-06-24T18:13:16.821720+00:00"},{"fuel_type":"E10","price":1.35,"currency":"EUR","unit":"L","updated_at":"2026-06-24T18:13:16.821720+00:00"}]},{"id":"pl_xavvy_M_POL_10167770","country":"PL","name":"CEL","brand":"CEL","address":"Jesionowa 2","city":"Biedrusko","lat":52.535145,"lon":16.943893,"source":"anwb.nl (ANWB POI API)","confidence":0.85,"prices":[{"fuel_type":"DIESEL","price":1.408,"currency":"EUR","unit":"L","updated_at":"2026-06-24T18:13:16.821720+00:00"},{"fuel_type":"E10","price":1.378,"currency":"EUR","unit":"L","updated_at":"2026-06-24T18:13:16.821720+00:00"}]},{"id":"pl_xavvy_M_POL_10167771","country":"PL","name":"MOYA","brand":"MOYA","address":"Ul. Grczewska 218","city":"Warszawa","lat":52.239481,"lon":20.904869,"source":"anwb.nl (ANWB POI API)","confidence":0.85,"prices":[{"fuel_type":"DIESEL","price":1.35,"currency":"EUR","unit":"L","updated_at":"2026-06-24T18:13:16.821720+00:00"},{"fuel_type":"E10","price":1.35,"currency":"EUR","unit":"L","updated_at":"2026-06-24T18:13:16.821720+00:00"}]},{"id":"pl_xavvy_M_POL_10167777","country":"PL","name":"MOYA","brand":"MOYA","address":"Ul. Wyszogrodzka 61","city":"Plonsk","lat":52.612289,"lon":20.367854,"source":"anwb.nl (ANWB POI API)","confidence":0.85,"prices":[{"fuel_type":"E10","price":1.355,"currency":"EUR","unit":"L","updated_at":"2026-06-24T18:13:16.821720+00:00"},{"fuel_type":"DIESEL","price":1.35,"currency":"EUR","unit":"L","updated_at":"2026-06-24T18:13:16.821720+00:00"}]},{"id":"pl_xavvy_M_POL_10167798","country":"PL","name":"MIXPOL","brand":"MIXPOL","address":"Ul. Henryka Sienkiewicza B/N","city":"Kety","lat":49.882165,"lon":19.228613,"source":"anwb.nl (ANWB POI API)","confidence":0.85,"prices":[{"fuel_type":"DIESEL","price":1.35,"currency":"EUR","unit":"L","updated_at":"2026-06-24T18:13:16.821720+00:00"}]},{"id":"pl_xavvy_M_POL_10177176","country":"PL","name":"ORLEN","brand":"ORLEN","address":"Zakladnikow 18","city":"Sieradz","lat":51.601985,"lon":18.709878,"source":"anwb.nl (ANWB POI API)","confidence":0.85,"prices":[{"fuel_type":"DIESEL","price":1.422,"currency":"EUR","unit":"L","updated_at":"2026-06-24T18:13:16.821720+00:00"},{"fuel_type":"E10","price":1.373,"currency":"EUR","unit":"L","updated_at":"2026-06-24T18:13:16.821720+00:00"}]},{"id":"pl_xavvy_M_POL_10179","country":"PL","name":"ORLEN","brand":"ORLEN","address":"Kielecka","city":"Suchedniow","lat":51.043496,"lon":20.828633,"source":"anwb.nl (ANWB POI API)","confidence":0.85,"prices":[{"fuel_type":"E10","price":1.397,"currency":"EUR","unit":"L","updated_at":"2026-06-24T18:13:16.821720+00:00"},{"fuel_type":"DIESEL","price":1.486,"currency":"EUR","unit":"L","updated_at":"2026-06-24T18:13:16.821720+00:00"}]},{"id":"pl_xavvy_M_POL_10193665","country":"PL","name":"WATKEM","brand":"WATKEM","address":"Warszawska 170","city":"Rzeszow","lat":50.092766,"lon":21.981897,"source":"anwb.nl (ANWB POI API)","confidence":0.85,"prices":[{"fuel_type":"DIESEL","price":1.35,"currency":"EUR","unit":"L","updated_at":"2026-06-24T18:13:16.821720+00:00"},{"fuel_type":"E10","price":1.329,"currency":"EUR","unit":"L","updated_at":"2026-06-24T18:13:16.821720+00:00"}]},{"id":"pl_xavvy_M_POL_10218","country":"PL","name":"ORLEN","brand":"ORLEN","address":"Mop Osiecza Iii [Ulica Osiecza Pierwsza 41b]","city":"Osiecza Druga","lat":52.179384,"lon":18.120654,"source":"anwb.nl (ANWB POI API)","confidence":0.85,"prices":[{"fuel_type":"DIESEL","price":1.42,"currency":"EUR","unit":"L","updated_at":"2026-06-24T18:13:16.821720+00:00"},{"fuel_type":"E10","price":1.392,"currency":"EUR","unit":"L","updated_at":"2026-06-24T18:13:16.821720+00:00"}]},{"id":"pl_xavvy_M_POL_10221791","country":"PL","name":"TOP OIL PALIWA","brand":"TOP OIL PALIWA","address":"Wygoda 2","city":"Glogow Malopolski","lat":50.164276,"lon":21.95775,"source":"anwb.nl (ANWB POI API)","confidence":0.85,"prices":[{"fuel_type":"DIESEL","price":1.394,"currency":"EUR","unit":"L","updated_at":"2026-06-24T18:13:16.821720+00:00"},{"fuel_type":"E10","price":1.373,"currency":"EUR","unit":"L","updated_at":"2026-06-24T18:13:16.821720+00:00"}]},{"id":"pl_xavvy_M_POL_10221796","country":"PL","name":"OLKOP","brand":"OLKOP","address":"Malborska 6d","city":"Prabuty","lat":53.765332,"lon":19.199174,"source":"anwb.nl (ANWB POI API)","confidence":0.85,"prices":[{"fuel_type":"DIESEL","price":1.35,"currency":"EUR","unit":"L","updated_at":"2026-06-24T18:13:16.821720+00:00"}]},{"id":"pl_xavvy_M_POL_10227695","country":"PL","name":"MIXPOL","brand":"MIXPOL","address":"Al.Jana Pawla Ii B/N","city":"Zywiec","lat":49.687764,"lon":19.192563,"source":"anwb.nl (ANWB POI API)","confidence":0.85,"prices":[{"fuel_type":"E10","price":1.467,"currency":"EUR","unit":"L","updated_at":"2026-06-24T18:13:16.821720+00:00"},{"fuel_type":"DIESEL","price":1.35,"currency":"EUR","unit":"L","updated_at":"2026-06-24T18:13:16.821720+00:00"}]},{"id":"pl_xavvy_M_POL_10235815","country":"PL","name":"MOL","brand":"MOL","address":"Bargłów Dworny 107","city":"Bargłów Dworny","lat":53.776157,"lon":22.828708,"source":"anwb.nl (ANWB POI API)","confidence":0.85,"prices":[{"fuel_type":"E10","price":1.413,"currency":"EUR","unit":"L","updated_at":"2026-06-24T18:13:16.821720+00:00"},{"fuel_type":"DIESEL","price":1.413,"currency":"EUR","unit":"L","updated_at":"2026-06-24T18:13:16.821720+00:00"}]},{"id":"pl_xavvy_M_POL_10259","country":"PL","name":"SHELL","brand":"SHELL","address":"J.Wisniewskiego 13","city":"Gdynia","lat":54.529001,"lon":18.513665,"source":"anwb.nl (ANWB POI API)","confidence":0.85,"prices":[{"fuel_type":"DIESEL","price":1.42,"currency":"EUR","unit":"L","updated_at":"2026-06-24T18:13:16.821720+00:00"},{"fuel_type":"E10","price":1.556,"currency":"EUR","unit":"L","updated_at":"2026-06-24T18:13:16.821720+00:00"}]},{"id":"pl_xavvy_M_POL_10260","country":"PL","name":"BP","brand":"BP","address":"Ul. Lwowska 120/132","city":"Tarnow","lat":50.014221,"lon":21.014623,"source":"anwb.nl (ANWB POI API)","confidence":0.85,"prices":[{"fuel_type":"DIESEL","price":1.49,"currency":"EUR","unit":"L","updated_at":"2026-06-24T18:13:16.821720+00:00"},{"fuel_type":"E10","price":1.383,"currency":"EUR","unit":"L","updated_at":"2026-06-24T18:13:16.821720+00:00"}]},{"id":"pl_xavvy_M_POL_10261","country":"PL","name":"BP","brand":"BP","address":"Grodziska 51","city":"Rakoniewice","lat":52.146425,"lon":16.28358,"source":"anwb.nl (ANWB POI API)","confidence":0.85,"prices":[{"fuel_type":"DIESEL","price":1.425,"currency":"EUR","unit":"L","updated_at":"2026-06-24T18:13:16.821720+00:00"},{"fuel_type":"E10","price":1.401,"currency":"EUR","unit":"L","updated_at":"2026-06-24T18:13:16.821720+00:00"}]},{"id":"pl_xavvy_M_POL_10264269","country":"PL","name":"ORLEN","brand":"ORLEN","address":"Mszczonowska 83","city":"Nadarzyn","lat":52.08269,"lon":20.792538,"source":"anwb.nl (ANWB POI API)","confidence":0.85,"prices":[{"fuel_type":"DIESEL","price":1.42,"currency":"EUR","unit":"L","updated_at":"2026-06-24T18:13:16.821720+00:00"},{"fuel_type":"E10","price":1.392,"currency":"EUR","unit":"L","updated_at":"2026-06-24T18:13:16.821720+00:00"}]},{"id":"pl_xavvy_M_POL_10269009","country":"PL","name":"MOYA","brand":"MOYA","address":"Al. Armii Krajowej 19","city":"Warszawa","lat":52.272048,"lon":20.965893,"source":"anwb.nl (ANWB POI API)","confidence":0.85,"prices":[{"fuel_type":"DIESEL","price":1.35,"currency":"EUR","unit":"L","updated_at":"2026-06-24T18:13:16.821720+00:00"},{"fuel_type":"E10","price":1.35,"currency":"EUR","unit":"L","updated_at":"2026-06-24T18:13:16.821720+00:00"}]},{"id":"pl_xavvy_M_POL_10269010","country":"PL","name":"MOYA","brand":"MOYA","address":"Ul. Partyzantów 14","city":"Bochnia","lat":49.981239,"lon":20.421783,"source":"anwb.nl (ANWB POI API)","confidence":0.85,"prices":[{"fuel_type":"E10","price":1.355,"currency":"EUR","unit":"L","updated_at":"2026-06-24T18:13:16.821720+00:00"},{"fuel_type":"DIESEL","price":1.35,"currency":"EUR","unit":"L","updated_at":"2026-06-24T18:13:16.821720+00:00"}]},{"id":"pl_xavvy_M_POL_10269041","country":"PL","name":"MOYA","brand":"MOYA","address":"Oblaczkowo 178","city":"Oblaczkowo","lat":52.310373,"lon":17.552794,"source":"anwb.nl (ANWB POI API)","confidence":0.85,"prices":[{"fuel_type":"E10","price":1.343,"currency":"EUR","unit":"L","updated_at":"2026-06-24T18:13:16.821720+00:00"},{"fuel_type":"DIESEL","price":1.35,"currency":"EUR","unit":"L","updated_at":"2026-06-24T18:13:16.821720+00:00"}]},{"id":"pl_xavvy_M_POL_10269091","country":"PL","name":"MOYA","brand":"MOYA","address":"Rudzka 186","city":"Rybnik","lat":50.120283,"lon":18.519742,"source":"anwb.nl (ANWB POI API)","confidence":0.85,"prices":[{"fuel_type":"E10","price":1.355,"currency":"EUR","unit":"L","updated_at":"2026-06-24T18:13:16.821720+00:00"},{"fuel_type":"DIESEL","price":1.35,"currency":"EUR","unit":"L","updated_at":"2026-06-24T18:13:16.821720+00:00"}]},{"id":"pl_xavvy_M_POL_10269093","country":"PL","name":"SHELL","brand":"SHELL","address":"Stolno 106","city":"Stolno","lat":53.325971,"lon":18.49826,"source":"anwb.nl (ANWB POI API)","confidence":0.85,"prices":[{"fuel_type":"E10","price":1.413,"currency":"EUR","unit":"L","updated_at":"2026-06-24T18:13:16.821720+00:00"},{"fuel_type":"DIESEL","price":1.495,"currency":"EUR","unit":"L","updated_at":"2026-06-24T18:13:16.821720+00:00"}]},{"id":"pl_xavvy_M_POL_10271","country":"PL","name":"SHELL","brand":"SHELL","address":"Morska 58","city":"Gdynia","lat":54.526936,"lon":18.51241,"source":"anwb.nl (ANWB POI API)","confidence":0.85,"prices":[{"fuel_type":"DIESEL","price":1.464,"currency":"EUR","unit":"L","updated_at":"2026-06-24T18:13:16.821720+00:00"},{"fuel_type":"E10","price":1.56,"currency":"EUR","unit":"L","updated_at":"2026-06-24T18:13:16.821720+00:00"}]},{"id":"pl_xavvy_M_POL_10272","country":"PL","name":"SHELL","brand":"SHELL","address":"Trakt Sw. Wojciecha 223","city":"Gdansk","lat":54.314595,"lon":18.629693,"source":"anwb.nl (ANWB POI API)","confidence":0.85,"prices":[{"fuel_type":"DIESEL","price":1.42,"currency":"EUR","unit":"L","updated_at":"2026-06-24T18:13:16.821720+00:00"},{"fuel_type":"E10","price":1.392,"currency":"EUR","unit":"L","updated_at":"2026-06-24T18:13:16.821720+00:00"}]},{"id":"pl_xavvy_M_POL_1028027","country":"PL","name":"CIRCLE K","brand":"CIRCLE K","address":"Konary 43","city":"Stopnica","lat":50.443981,"lon":20.827632,"source":"anwb.nl (ANWB POI API)","confidence":0.85,"prices":[{"fuel_type":"E10","price":1.383,"currency":"EUR","unit":"L","updated_at":"2026-06-24T18:13:16.821720+00:00"},{"fuel_type":"DIESEL","price":1.443,"currency":"EUR","unit":"L","updated_at":"2026-06-24T18:13:16.821720+00:00"}]},{"id":"pl_xavvy_M_POL_10317","country":"PL","name":"KANDEFER","brand":"KANDEFER","address":"9 / E 371","city":"Rowne","lat":49.58023,"lon":21.704033,"source":"anwb.nl (ANWB POI API)","confidence":0.85,"prices":[{"fuel_type":"DIESEL","price":1.397,"currency":"EUR","unit":"L","updated_at":"2026-06-24T18:13:16.821720+00:00"}]},{"id":"pl_xavvy_M_POL_10333","country":"PL","name":"SHELL","brand":"SHELL","address":"Warszawska 3","city":"Poczesna","lat":50.717801,"lon":19.152593,"source":"anwb.nl (ANWB POI API)","confidence":0.85,"prices":[{"fuel_type":"DIESEL","price":1.397,"currency":"EUR","unit":"L","updated_at":"2026-06-24T18:13:16.821720+00:00"},{"fuel_type":"E10","price":1.313,"currency":"EUR","unit":"L","updated_at":"2026-06-24T18:13:16.821720+00:00"}]},{"id":"pl_xavvy_M_POL_10347","country":"PL","name":"WOJKOWICE","brand":"WOJKOWICE","address":"Wroclawska 37","city":"Wojkowice","lat":50.979029,"lon":17.070824,"source":"anwb.nl (ANWB POI API)","confidence":0.85,"prices":[{"fuel_type":"E10","price":1.401,"currency":"EUR","unit":"L","updated_at":"2026-06-24T18:13:16.821720+00:00"},{"fuel_type":"DIESEL","price":1.425,"currency":"EUR","unit":"L","updated_at":"2026-06-24T18:13:16.821720+00:00"}]},{"id":"pl_xavvy_M_POL_10374","country":"PL","name":"ORLEN","brand":"ORLEN","address":"Gdanska 65","city":"Bytów","lat":54.180792,"lon":17.497952,"source":"anwb.nl (ANWB POI API)","confidence":0.85,"prices":[{"fuel_type":"DIESEL","price":1.42,"currency":"EUR","unit":"L","updated_at":"2026-06-24T18:13:16.821720+00:00"},{"fuel_type":"E10","price":1.371,"currency":"EUR","unit":"L","updated_at":"2026-06-24T18:13:16.821720+00:00"}]},{"id":"pl_xavvy_M_POL_10376","country":"PL","name":"ORLEN","brand":"ORLEN","address":"Kielecka 43","city":"Nowa Słupia","lat":50.85474,"lon":21.08588,"source":"anwb.nl (ANWB POI API)","confidence":0.85,"prices":[{"fuel_type":"E10","price":1.408,"currency":"EUR","unit":"L","updated_at":"2026-06-24T18:13:16.821720+00:00"},{"fuel_type":"DIESEL","price":1.418,"currency":"EUR","unit":"L","updated_at":"2026-06-24T18:13:16.821720+00:00"}]},{"id":"pl_xavvy_M_POL_10377","country":"PL","name":"ORLEN","brand":"ORLEN","address":"Glowna 14","city":"Aleksandrowka","lat":51.571812,"lon":21.539238,"source":"anwb.nl (ANWB POI API)","confidence":0.85,"prices":[{"fuel_type":"E10","price":1.39,"currency":"EUR","unit":"L","updated_at":"2026-06-24T18:13:16.821720+00:00"},{"fuel_type":"DIESEL","price":1.42,"currency":"EUR","unit":"L","updated_at":"2026-06-24T18:13:16.821720+00:00"}]},{"id":"pl_xavvy_M_POL_10378","country":"PL","name":"ORLEN","brand":"ORLEN","address":"Wojska Polskiego 181","city":"Łomża","lat":53.172132,"lon":22.019351,"source":"anwb.nl (ANWB POI API)","confidence":0.85,"prices":[{"fuel_type":"E10","price":1.39,"currency":"EUR","unit":"L","updated_at":"2026-06-24T18:13:16.821720+00:00"},{"fuel_type":"DIESEL","price":1.42,"currency":"EUR","unit":"L","updated_at":"2026-06-24T18:13:16.821720+00:00"}]},{"id":"pl_xavvy_M_POL_10379","country":"PL","name":"ORLEN","brand":"ORLEN","address":"Zambrowska 1","city":"Czyżew","lat":52.803659,"lon":22.30886,"source":"anwb.nl (ANWB POI API)","confidence":0.85,"prices":[{"fuel_type":"DIESEL","price":1.42,"currency":"EUR","unit":"L","updated_at":"2026-06-24T18:13:16.821720+00:00"},{"fuel_type":"E10","price":1.392,"currency":"EUR","unit":"L","updated_at":"2026-06-24T18:13:16.821720+00:00"}]},{"id":"pl_xavvy_M_POL_10380","country":"PL","name":"ORLEN","brand":"ORLEN","address":"Kawaleryjska 27","city":"Białystok","lat":53.102395,"lon":23.139124,"source":"anwb.nl (ANWB POI API)","confidence":0.85,"prices":[{"fuel_type":"DIESEL","price":1.42,"currency":"EUR","unit":"L","updated_at":"2026-06-24T18:13:16.821720+00:00"},{"fuel_type":"E10","price":1.392,"currency":"EUR","unit":"L","updated_at":"2026-06-24T18:13:16.821720+00:00"}]},{"id":"pl_xavvy_M_POL_10381","country":"PL","name":"ORLEN","brand":"ORLEN","address":"Strupin Maly 1","city":"Strupin Maly","lat":51.114091,"lon":23.5209,"source":"anwb.nl (ANWB POI API)","confidence":0.85,"prices":[{"fuel_type":"DIESEL","price":1.42,"currency":"EUR","unit":"L","updated_at":"2026-06-24T18:13:16.821720+00:00"},{"fuel_type":"E10","price":1.392,"currency":"EUR","unit":"L","updated_at":"2026-06-24T18:13:16.821720+00:00"}]},{"id":"pl_xavvy_M_POL_10382","country":"PL","name":"ORLEN","brand":"ORLEN","address":"Ploskie 13","city":"Zamosc","lat":50.708318,"lon":23.203701,"source":"anwb.nl (ANWB POI API)","confidence":0.85,"prices":[{"fuel_type":"DIESEL","price":1.42,"currency":"EUR","unit":"L","updated_at":"2026-06-24T18:13:16.821720+00:00"},{"fuel_type":"E10","price":1.394,"currency":"EUR","unit":"L","updated_at":"2026-06-24T18:13:16.821720+00:00"}]},{"id":"pl_xavvy_M_POL_10384","country":"PL","name":"ORLEN","brand":"ORLEN","address":"Rzeszowska 4","city":"Brzozów","lat":49.705596,"lon":22.019245,"source":"anwb.nl (ANWB POI API)","confidence":0.85,"prices":[{"fuel_type":"E10","price":1.394,"currency":"EUR","unit":"L","updated_at":"2026-06-24T18:13:16.821720+00:00"},{"fuel_type":"DIESEL","price":1.42,"currency":"EUR","unit":"L","updated_at":"2026-06-24T18:13:16.821720+00:00"}]},{"id":"pl_xavvy_M_POL_10385","country":"PL","name":"ORLEN","brand":"ORLEN","address":"Lubelska 70","city":"Włodawa","lat":51.550226,"lon":23.53906,"source":"anwb.nl (ANWB POI API)","confidence":0.85,"prices":[{"fuel_type":"E10","price":1.39,"currency":"EUR","unit":"L","updated_at":"2026-06-24T18:13:16.821720+00:00"},{"fuel_type":"DIESEL","price":1.418,"currency":"EUR","unit":"L","updated_at":"2026-06-24T18:13:16.821720+00:00"}]},{"id":"pl_xavvy_M_POL_10386","country":"PL","name":"ORLEN","brand":"ORLEN","address":"Kolejowa 69","city":"Sarnaki","lat":52.321473,"lon":22.880061,"source":"anwb.nl (ANWB POI API)","confidence":0.85,"prices":[{"fuel_type":"E10","price":1.392,"currency":"EUR","unit":"L","updated_at":"2026-06-24T18:13:16.821720+00:00"},{"fuel_type":"DIESEL","price":1.42,"currency":"EUR","unit":"L","updated_at":"2026-06-24T18:13:16.821720+00:00"}]},{"id":"pl_xavvy_M_POL_10387","country":"PL","name":"ORLEN","brand":"ORLEN","address":"M.Curie-Sklodowskiej 28","city":"Darłowo","lat":54.417628,"lon":16.410719,"source":"anwb.nl (ANWB POI API)","confidence":0.85,"prices":[{"fuel_type":"E10","price":1.399,"currency":"EUR","unit":"L","updated_at":"2026-06-24T18:13:16.821720+00:00"},{"fuel_type":"DIESEL","price":1.42,"currency":"EUR","unit":"L","updated_at":"2026-06-24T18:13:16.821720+00:00"}]},{"id":"pl_xavvy_M_POL_10388","country":"PL","name":"ORLEN","brand":"ORLEN","address":"Ul. 17-Stu Pionierow 14","city":"Krosno Odrzanskie","lat":52.055154,"lon":15.117369,"source":"anwb.nl (ANWB POI API)","confidence":0.85,"prices":[{"fuel_type":"E10","price":1.394,"currency":"EUR","unit":"L","updated_at":"2026-06-24T18:13:16.821720+00:00"},{"fuel_type":"DIESEL","price":1.42,"currency":"EUR","unit":"L","updated_at":"2026-06-24T18:13:16.821720+00:00"}]},{"id":"pl_xavvy_M_POL_10389","country":"PL","name":"ORLEN","brand":"ORLEN","address":"Obwodowa 12","city":"Warka","lat":51.789662,"lon":21.179861,"source":"anwb.nl (ANWB POI API)","confidence":0.85,"prices":[{"fuel_type":"E10","price":1.39,"currency":"EUR","unit":"L","updated_at":"2026-06-24T18:13:16.821720+00:00"},{"fuel_type":"DIESEL","price":1.397,"currency":"EUR","unit":"L","updated_at":"2026-06-24T18:13:16.821720+00:00"}]},{"id":"pl_xavvy_M_POL_10390","country":"PL","name":"ORLEN","brand":"ORLEN","address":"Olesnicka","city":"Namyslow","lat":51.084577,"lon":17.705051,"source":"anwb.nl (ANWB POI API)","confidence":0.85,"prices":[{"fuel_type":"E10","price":1.394,"currency":"EUR","unit":"L","updated_at":"2026-06-24T18:13:16.821720+00:00"},{"fuel_type":"DIESEL","price":1.42,"currency":"EUR","unit":"L","updated_at":"2026-06-24T18:13:16.821720+00:00"}]},{"id":"pl_xavvy_M_POL_10391","country":"PL","name":"ORLEN","brand":"ORLEN","address":"Warszawska 4","city":"Konstancin-Jeziorna","lat":52.092131,"lon":21.119556,"source":"anwb.nl (ANWB POI API)","confidence":0.85,"prices":[{"fuel_type":"E10","price":1.394,"currency":"EUR","unit":"L","updated_at":"2026-06-24T18:13:16.821720+00:00"},{"fuel_type":"DIESEL","price":1.42,"currency":"EUR","unit":"L","updated_at":"2026-06-24T18:13:16.821720+00:00"}]},{"id":"pl_xavvy_M_POL_10392","country":"PL","name":"ORLEN","brand":"ORLEN","address":"Starogrodzka 32","city":"Drawsko Pomorskie","lat":53.526812,"lon":15.795715,"source":"anwb.nl (ANWB POI API)","confidence":0.85,"prices":[{"fuel_type":"E10","price":1.394,"currency":"EUR","unit":"L","updated_at":"2026-06-24T18:13:16.821720+00:00"},{"fuel_type":"DIESEL","price":1.42,"currency":"EUR","unit":"L","updated_at":"2026-06-24T18:13:16.821720+00:00"}]},{"id":"pl_xavvy_M_POL_10393","country":"PL","name":"ORLEN","brand":"ORLEN","address":"19 Stycznia 24","city":"Lubien Kujawski","lat":52.396842,"lon":19.171014,"source":"anwb.nl (ANWB POI API)","confidence":0.85,"prices":[{"fuel_type":"E10","price":1.383,"currency":"EUR","unit":"L","updated_at":"2026-06-24T18:13:16.821720+00:00"},{"fuel_type":"DIESEL","price":1.42,"currency":"EUR","unit":"L","updated_at":"2026-06-24T18:13:16.821720+00:00"}]},{"id":"pl_xavvy_M_POL_10393242","country":"PL","name":"LOTOS","brand":"LOTOS","address":"Osięciny","city":"Samszyce","lat":52.611373,"lon":18.717332,"source":"anwb.nl (ANWB POI API)","confidence":0.85,"prices":[{"fuel_type":"E10","price":1.373,"currency":"EUR","unit":"L","updated_at":"2026-06-24T18:13:16.821720+00:00"},{"fuel_type":"DIESEL","price":1.35,"currency":"EUR","unit":"L","updated_at":"2026-06-24T18:13:16.821720+00:00"}]},{"id":"pl_xavvy_M_POL_10394","country":"PL","name":"ORLEN","brand":"ORLEN","address":"Marii Konopnickiej 12","city":"Kielce","lat":50.881522,"lon":20.650193,"source":"anwb.nl (ANWB POI API)","confidence":0.85,"prices":[{"fuel_type":"DIESEL","price":1.42,"currency":"EUR","unit":"L","updated_at":"2026-06-24T18:13:16.821720+00:00"},{"fuel_type":"E10","price":1.373,"currency":"EUR","unit":"L","updated_at":"2026-06-24T18:13:16.821720+00:00"}]},{"id":"pl_xavvy_M_POL_10395","country":"PL","name":"ORLEN","brand":"ORLEN","address":"Doktor Anki 16","city":"Iłża","lat":51.167371,"lon":21.232443,"source":"anwb.nl (ANWB POI API)","confidence":0.85,"prices":[{"fuel_type":"E10","price":1.394,"currency":"EUR","unit":"L","updated_at":"2026-06-24T18:13:16.821720+00:00"},{"fuel_type":"DIESEL","price":1.42,"currency":"EUR","unit":"L","updated_at":"2026-06-24T18:13:16.821720+00:00"}]},{"id":"pl_xavvy_M_POL_10395766","country":"PL","name":"MOYA","brand":"MOYA","address":"Ul. Zywiecka 1107","city":"Wieprz","lat":49.64796,"lon":19.16456,"source":"anwb.nl (ANWB POI API)","confidence":0.85,"prices":[{"fuel_type":"DIESEL","price":1.35,"currency":"EUR","unit":"L","updated_at":"2026-06-24T18:13:16.821720+00:00"},{"fuel_type":"E10","price":1.35,"currency":"EUR","unit":"L","updated_at":"2026-06-24T18:13:16.821720+00:00"}]},{"id":"pl_xavvy_M_POL_10396","country":"PL","name":"ORLEN","brand":"ORLEN","address":"Wojska Polskiego","city":"Koscierzyna","lat":54.116606,"lon":17.964208,"source":"anwb.nl (ANWB POI API)","confidence":0.85,"prices":[{"fuel_type":"E10","price":1.394,"currency":"EUR","unit":"L","updated_at":"2026-06-24T18:13:16.821720+00:00"},{"fuel_type":"DIESEL","price":1.408,"currency":"EUR","unit":"L","updated_at":"2026-06-24T18:13:16.821720+00:00"}]},{"id":"pl_xavvy_M_POL_10397","country":"PL","name":"ORLEN","brand":"ORLEN","address":"Grunwaldzka 1","city":"Ustka","lat":54.580639,"lon":16.862311,"source":"anwb.nl (ANWB POI API)","confidence":0.85,"prices":[{"fuel_type":"DIESEL","price":1.42,"currency":"EUR","unit":"L","updated_at":"2026-06-24T18:13:16.821720+00:00"},{"fuel_type":"E10","price":1.392,"currency":"EUR","unit":"L","updated_at":"2026-06-24T18:13:16.821720+00:00"}]},{"id":"pl_xavvy_M_POL_10398","country":"PL","name":"ORLEN","brand":"ORLEN","address":"Poznanska 32","city":"Piła","lat":53.13498,"lon":16.75316,"source":"anwb.nl (ANWB POI API)","confidence":0.85,"prices":[{"fuel_type":"E10","price":1.39,"currency":"EUR","unit":"L","updated_at":"2026-06-24T18:13:16.821720+00:00"},{"fuel_type":"DIESEL","price":1.42,"currency":"EUR","unit":"L","updated_at":"2026-06-24T18:13:16.821720+00:00"}]},{"id":"pl_xavvy_M_POL_10400","country":"PL","name":"ORLEN","brand":"ORLEN","address":"Warszawska 357","city":"Bielsko-Biala","lat":49.85903,"lon":19.02298,"source":"anwb.nl (ANWB POI API)","confidence":0.85,"prices":[{"fuel_type":"DIESEL","price":1.415,"currency":"EUR","unit":"L","updated_at":"2026-06-24T18:13:16.821720+00:00"},{"fuel_type":"E10","price":1.392,"currency":"EUR","unit":"L","updated_at":"2026-06-24T18:13:16.821720+00:00"}]},{"id":"pl_xavvy_M_POL_10401","country":"PL","name":"ORLEN","brand":"ORLEN","address":"Niepodległości 45a","city":"Nowa Ruda","lat":50.567016,"lon":16.533267,"source":"anwb.nl (ANWB POI API)","confidence":0.85,"prices":[{"fuel_type":"DIESEL","price":1.42,"currency":"EUR","unit":"L","updated_at":"2026-06-24T18:13:16.821720+00:00"},{"fuel_type":"E10","price":1.392,"currency":"EUR","unit":"L","updated_at":"2026-06-24T18:13:16.821720+00:00"}]},{"id":"pl_xavvy_M_POL_10402","country":"PL","name":"ORLEN","brand":"ORLEN","address":"Poznanska 23","city":"Kcynia","lat":52.990128,"lon":17.478452,"source":"anwb.nl (ANWB POI API)","confidence":0.85,"prices":[{"fuel_type":"E10","price":1.408,"currency":"EUR","unit":"L","updated_at":"2026-06-24T18:13:16.821720+00:00"},{"fuel_type":"DIESEL","price":1.42,"currency":"EUR","unit":"L","updated_at":"2026-06-24T18:13:16.821720+00:00"}]},{"id":"pl_xavvy_M_POL_10403","country":"PL","name":"ORLEN","brand":"ORLEN","address":"Legnicka, 9","city":"Złotoryja","lat":51.126343,"lon":15.921474,"source":"anwb.nl (ANWB POI API)","confidence":0.85,"prices":[{"fuel_type":"DIESEL","price":1.42,"currency":"EUR","unit":"L","updated_at":"2026-06-24T18:13:16.821720+00:00"},{"fuel_type":"E10","price":1.392,"currency":"EUR","unit":"L","updated_at":"2026-06-24T18:13:16.821720+00:00"}]},{"id":"pl_xavvy_M_POL_10404","country":"PL","name":"ORLEN","brand":"ORLEN","address":"Kosciuszki 95","city":"Czarnkow","lat":52.895805,"lon":16.550969,"source":"anwb.nl (ANWB POI API)","confidence":0.85,"prices":[{"fuel_type":"E10","price":1.397,"currency":"EUR","unit":"L","updated_at":"2026-06-24T18:13:16.821720+00:00"},{"fuel_type":"DIESEL","price":1.42,"currency":"EUR","unit":"L","updated_at":"2026-06-24T18:13:16.821720+00:00"}]},{"id":"pl_xavvy_M_POL_10405","country":"PL","name":"ORLEN","brand":"ORLEN","address":"Ujska 12","city":"Chodzież","lat":52.989332,"lon":16.898808,"source":"anwb.nl (ANWB POI API)","confidence":0.85,"prices":[{"fuel_type":"DIESEL","price":1.42,"currency":"EUR","unit":"L","updated_at":"2026-06-24T18:13:16.821720+00:00"},{"fuel_type":"E10","price":1.394,"currency":"EUR","unit":"L","updated_at":"2026-06-24T18:13:16.821720+00:00"}]},{"id":"pl_xavvy_M_POL_10406","country":"PL","name":"ORLEN","brand":"ORLEN","address":"Boh. Getta, 9","city":"Kamienna Gora","lat":50.790224,"lon":16.033549,"source":"anwb.nl (ANWB POI API)","confidence":0.85,"prices":[{"fuel_type":"DIESEL","price":1.42,"currency":"EUR","unit":"L","updated_at":"2026-06-24T18:13:16.821720+00:00"},{"fuel_type":"E10","price":1.392,"currency":"EUR","unit":"L","updated_at":"2026-06-24T18:13:16.821720+00:00"}]},{"id":"pl_xavvy_M_POL_10407","country":"PL","name":"ORLEN","brand":"ORLEN","address":"Sikorskiego, 60","city":"Głogów","lat":51.664034,"lon":16.046807,"source":"anwb.nl (ANWB POI API)","confidence":0.85,"prices":[{"fuel_type":"DIESEL","price":1.42,"currency":"EUR","unit":"L","updated_at":"2026-06-24T18:13:16.821720+00:00"},{"fuel_type":"E10","price":1.392,"currency":"EUR","unit":"L","updated_at":"2026-06-24T18:13:16.821720+00:00"}]},{"id":"pl_xavvy_M_POL_10408","country":"PL","name":"ORLEN","brand":"ORLEN","address":"Biala 1b","city":"Radzyn Podlaski","lat":51.780759,"lon":22.593084,"source":"anwb.nl (ANWB POI API)","confidence":0.85,"prices":[{"fuel_type":"E10","price":1.387,"currency":"EUR","unit":"L","updated_at":"2026-06-24T18:13:16.821720+00:00"},{"fuel_type":"DIESEL","price":1.397,"currency":"EUR","unit":"L","updated_at":"2026-06-24T18:13:16.821720+00:00"}]},{"id":"pl_xavvy_M_POL_10409","country":"PL","name":"ORLEN","brand":"ORLEN","address":"Zakopianska 58","city":"Krakow","lat":50.017902,"lon":19.932317,"source":"anwb.nl (ANWB POI API)","confidence":0.85,"prices":[{"fuel_type":"E10","price":1.392,"currency":"EUR","unit":"L","updated_at":"2026-06-24T18:13:16.821720+00:00"},{"fuel_type":"DIESEL","price":1.42,"currency":"EUR","unit":"L","updated_at":"2026-06-24T18:13:16.821720+00:00"}]},{"id":"pl_xavvy_M_POL_10410","country":"PL","name":"ORLEN","brand":"ORLEN","address":"Jana Pawła Ii 27","city":"Strzelin","lat":50.784331,"lon":17.071398,"source":"anwb.nl (ANWB POI API)","confidence":0.85,"prices":[{"fuel_type":"E10","price":1.394,"currency":"EUR","unit":"L","updated_at":"2026-06-24T18:13:16.821720+00:00"},{"fuel_type":"DIESEL","price":1.42,"currency":"EUR","unit":"L","updated_at":"2026-06-24T18:13:16.821720+00:00"}]},{"id":"pl_xavvy_M_POL_10411","country":"PL","name":"ORLEN","brand":"ORLEN","address":"Kosciuszki 16","city":"Mogilno","lat":52.650058,"lon":17.948083,"source":"anwb.nl (ANWB POI API)","confidence":0.85,"prices":[{"fuel_type":"E10","price":1.39,"currency":"EUR","unit":"L","updated_at":"2026-06-24T18:13:16.821720+00:00"},{"fuel_type":"DIESEL","price":1.42,"currency":"EUR","unit":"L","updated_at":"2026-06-24T18:13:16.821720+00:00"}]},{"id":"pl_xavvy_M_POL_10412","country":"PL","name":"ORLEN","brand":"ORLEN","address":"Jaworzynska 238","city":"Legnica","lat":51.177788,"lon":16.158207,"source":"anwb.nl (ANWB POI API)","confidence":0.85,"prices":[{"fuel_type":"DIESEL","price":1.42,"currency":"EUR","unit":"L","updated_at":"2026-06-24T18:13:16.821720+00:00"},{"fuel_type":"E10","price":1.392,"currency":"EUR","unit":"L","updated_at":"2026-06-24T18:13:16.821720+00:00"}]},{"id":"pl_xavvy_M_POL_10414","country":"PL","name":"ORLEN","brand":"ORLEN","address":"Białostocka 85b","city":"Mońki","lat":53.396371,"lon":22.803771,"source":"anwb.nl (ANWB POI API)","confidence":0.85,"prices":[{"fuel_type":"DIESEL","price":1.42,"currency":"EUR","unit":"L","updated_at":"2026-06-24T18:13:16.821720+00:00"},{"fuel_type":"E10","price":1.392,"currency":"EUR","unit":"L","updated_at":"2026-06-24T18:13:16.821720+00:00"}]},{"id":"pl_xavvy_M_POL_10415","country":"PL","name":"ORLEN","brand":"ORLEN","address":"Wyzwolenia 54","city":"Hrubieszów","lat":50.808353,"lon":23.913618,"source":"anwb.nl (ANWB POI API)","confidence":0.85,"prices":[{"fuel_type":"DIESEL","price":1.42,"currency":"EUR","unit":"L","updated_at":"2026-06-24T18:13:16.821720+00:00"},{"fuel_type":"E10","price":1.394,"currency":"EUR","unit":"L","updated_at":"2026-06-24T18:13:16.821720+00:00"}]},{"id":"pl_xavvy_M_POL_10416","country":"PL","name":"ORLEN","brand":"ORLEN","address":"Konstantynowska 17","city":"Aleksandrow Lodzki","lat":51.809517,"lon":19.320403,"source":"anwb.nl (ANWB POI API)","confidence":0.85,"prices":[{"fuel_type":"DIESEL","price":1.42,"currency":"EUR","unit":"L","updated_at":"2026-06-24T18:13:16.821720+00:00"},{"fuel_type":"E10","price":1.392,"currency":"EUR","unit":"L","updated_at":"2026-06-24T18:13:16.821720+00:00"}]},{"id":"pl_xavvy_M_POL_10417","country":"PL","name":"ORLEN","brand":"ORLEN","address":"Jagiellonska","city":"Krościenko Nad Dunajcem","lat":49.438868,"lon":20.406752,"source":"anwb.nl (ANWB POI API)","confidence":0.85,"prices":[{"fuel_type":"DIESEL","price":1.483,"currency":"EUR","unit":"L","updated_at":"2026-06-24T18:13:16.821720+00:00"},{"fuel_type":"E10","price":1.383,"currency":"EUR","unit":"L","updated_at":"2026-06-24T18:13:16.821720+00:00"}]},{"id":"pl_xavvy_M_POL_10419","country":"PL","name":"ORLEN","brand":"ORLEN","address":"1 Maja 34","city":"Wysokie Mazowieckie","lat":52.907319,"lon":22.51187,"source":"anwb.nl (ANWB POI API)","confidence":0.85,"prices":[{"fuel_type":"E10","price":1.383,"currency":"EUR","unit":"L","updated_at":"2026-06-24T18:13:16.821720+00:00"},{"fuel_type":"DIESEL","price":1.42,"currency":"EUR","unit":"L","updated_at":"2026-06-24T18:13:16.821720+00:00"}]},{"id":"pl_xavvy_M_POL_10420","country":"PL","name":"ORLEN","brand":"ORLEN","address":"Wylewa 208 C","city":"Sieniawa","lat":50.183011,"lon":22.613618,"source":"anwb.nl (ANWB POI API)","confidence":0.85,"prices":[{"fuel_type":"E10","price":1.394,"currency":"EUR","unit":"L","updated_at":"2026-06-24T18:13:16.821720+00:00"},{"fuel_type":"DIESEL","price":1.42,"currency":"EUR","unit":"L","updated_at":"2026-06-24T18:13:16.821720+00:00"}]},{"id":"pl_xavvy_M_POL_10421","country":"PL","name":"ORLEN","brand":"ORLEN","address":"1-Go Maja","city":"Ustrzyki Dolne","lat":49.421275,"lon":22.565722,"source":"anwb.nl (ANWB POI API)","confidence":0.85,"prices":[{"fuel_type":"DIESEL","price":1.42,"currency":"EUR","unit":"L","updated_at":"2026-06-24T18:13:16.821720+00:00"},{"fuel_type":"E10","price":1.392,"currency":"EUR","unit":"L","updated_at":"2026-06-24T18:13:16.821720+00:00"}]},{"id":"pl_xavvy_M_POL_10422","country":"PL","name":"ORLEN","brand":"ORLEN","address":"Opolska 1","city":"Ozimek","lat":50.673666,"lon":18.185128,"source":"anwb.nl (ANWB POI API)","confidence":0.85,"prices":[{"fuel_type":"DIESEL","price":1.42,"currency":"EUR","unit":"L","updated_at":"2026-06-24T18:13:16.821720+00:00"},{"fuel_type":"E10","price":1.392,"currency":"EUR","unit":"L","updated_at":"2026-06-24T18:13:16.821720+00:00"}]},{"id":"pl_xavvy_M_POL_10423","country":"PL","name":"ORLEN","brand":"ORLEN","address":"Pilsudzkiego 102","city":"Dabrowa Tarnowska","lat":50.156066,"lon":20.98258,"source":"anwb.nl (ANWB POI API)","confidence":0.85,"prices":[{"fuel_type":"E10","price":1.39,"currency":"EUR","unit":"L","updated_at":"2026-06-24T18:13:16.821720+00:00"},{"fuel_type":"DIESEL","price":1.425,"currency":"EUR","unit":"L","updated_at":"2026-06-24T18:13:16.821720+00:00"}]},{"id":"pl_xavvy_M_POL_10424","country":"PL","name":"ORLEN","brand":"ORLEN","address":"Gdanska 39a","city":"Żukowo","lat":54.342091,"lon":18.35956,"source":"anwb.nl (ANWB POI API)","confidence":0.85,"prices":[{"fuel_type":"DIESEL","price":1.42,"currency":"EUR","unit":"L","updated_at":"2026-06-24T18:13:16.821720+00:00"},{"fuel_type":"E10","price":1.392,"currency":"EUR","unit":"L","updated_at":"2026-06-24T18:13:16.821720+00:00"}]},{"id":"pl_xavvy_M_POL_10425","country":"PL","name":"ORLEN","brand":"ORLEN","address":"Torunska 8","city":"Kalisz Pomorski","lat":53.299744,"lon":15.912827,"source":"anwb.nl (ANWB POI API)","confidence":0.85,"prices":[{"fuel_type":"E10","price":1.394,"currency":"EUR","unit":"L","updated_at":"2026-06-24T18:13:16.821720+00:00"},{"fuel_type":"DIESEL","price":1.42,"currency":"EUR","unit":"L","updated_at":"2026-06-24T18:13:16.821720+00:00"}]},{"id":"pl_xavvy_M_POL_10426","country":"PL","name":"ORLEN","brand":"ORLEN","address":"Ul. Droga Nr. 5","city":"Rogowo","lat":52.731101,"lon":17.660193,"source":"anwb.nl (ANWB POI API)","confidence":0.85,"prices":[{"fuel_type":"DIESEL","price":1.42,"currency":"EUR","unit":"L","updated_at":"2026-06-24T18:13:16.821720+00:00"},{"fuel_type":"E10","price":1.394,"currency":"EUR","unit":"L","updated_at":"2026-06-24T18:13:16.821720+00:00"}]},{"id":"pl_xavvy_M_POL_10427","country":"PL","name":"ORLEN","brand":"ORLEN","address":"Warszawska 43","city":"Pisz","lat":53.621154,"lon":21.8167,"source":"anwb.nl (ANWB POI API)","confidence":0.85,"prices":[{"fuel_type":"DIESEL","price":1.42,"currency":"EUR","unit":"L","updated_at":"2026-06-24T18:13:16.821720+00:00"},{"fuel_type":"E10","price":1.392,"currency":"EUR","unit":"L","updated_at":"2026-06-24T18:13:16.821720+00:00"}]},{"id":"pl_xavvy_M_POL_10428","country":"PL","name":"ORLEN","brand":"ORLEN","address":"Jędrzejowska 58a","city":"Włoszczowa","lat":50.843211,"lon":20.001891,"source":"anwb.nl (ANWB POI API)","confidence":0.85,"prices":[{"fuel_type":"E10","price":1.39,"currency":"EUR","unit":"L","updated_at":"2026-06-24T18:13:16.821720+00:00"},{"fuel_type":"DIESEL","price":1.425,"currency":"EUR","unit":"L","updated_at":"2026-06-24T18:13:16.821720+00:00"}]},{"id":"pl_xavvy_M_POL_10429","country":"PL","name":"ORLEN","brand":"ORLEN","address":"Sandomierska 158","city":"Gorzyce","lat":50.662845,"lon":21.848813,"source":"anwb.nl (ANWB POI API)","confidence":0.85,"prices":[{"fuel_type":"E10","price":1.383,"currency":"EUR","unit":"L","updated_at":"2026-06-24T18:13:16.821720+00:00"},{"fuel_type":"DIESEL","price":1.42,"currency":"EUR","unit":"L","updated_at":"2026-06-24T18:13:16.821720+00:00"}]},{"id":"pl_xavvy_M_POL_10430","country":"PL","name":"ORLEN","brand":"ORLEN","address":"I Armii Wojska Polskiego 1","city":"Magnuszew","lat":51.752321,"lon":21.384995,"source":"anwb.nl (ANWB POI API)","confidence":0.85,"prices":[{"fuel_type":"E10","price":1.394,"currency":"EUR","unit":"L","updated_at":"2026-06-24T18:13:16.821720+00:00"},{"fuel_type":"DIESEL","price":1.42,"currency":"EUR","unit":"L","updated_at":"2026-06-24T18:13:16.821720+00:00"}]},{"id":"pl_xavvy_M_POL_10432","country":"PL","name":"ORLEN","brand":"ORLEN","address":"Zólkiewskiego 12","city":"Radom","lat":51.424853,"lon":21.161727,"source":"anwb.nl (ANWB POI API)","confidence":0.85,"prices":[{"fuel_type":"E10","price":1.383,"currency":"EUR","unit":"L","updated_at":"2026-06-24T18:13:16.821720+00:00"},{"fuel_type":"DIESEL","price":1.42,"currency":"EUR","unit":"L","updated_at":"2026-06-24T18:13:16.821720+00:00"}]},{"id":"pl_xavvy_M_POL_10433","country":"PL","name":"ORLEN","brand":"ORLEN","address":"Gdanska 22","city":"Trabki Wielkie","lat":54.175672,"lon":18.529843,"source":"anwb.nl (ANWB POI API)","confidence":0.85,"prices":[{"fuel_type":"DIESEL","price":1.42,"currency":"EUR","unit":"L","updated_at":"2026-06-24T18:13:16.821720+00:00"},{"fuel_type":"E10","price":1.385,"currency":"EUR","unit":"L","updated_at":"2026-06-24T18:13:16.821720+00:00"}]},{"id":"pl_xavvy_M_POL_10434","country":"PL","name":"ORLEN","brand":"ORLEN","address":"Krakowska 62","city":"Kielce","lat":50.862016,"lon":20.60452,"source":"anwb.nl (ANWB POI API)","confidence":0.85,"prices":[{"fuel_type":"DIESEL","price":1.418,"currency":"EUR","unit":"L","updated_at":"2026-06-24T18:13:16.821720+00:00"},{"fuel_type":"E10","price":1.383,"currency":"EUR","unit":"L","updated_at":"2026-06-24T18:13:16.821720+00:00"}]},{"id":"pl_xavvy_M_POL_10435","country":"PL","name":"ORLEN","brand":"ORLEN","address":"Okulickiego 1","city":"Mragowo","lat":53.877393,"lon":21.303133,"source":"anwb.nl (ANWB POI API)","confidence":0.85,"prices":[{"fuel_type":"E10","price":1.399,"currency":"EUR","unit":"L","updated_at":"2026-06-24T18:13:16.821720+00:00"},{"fuel_type":"DIESEL","price":1.42,"currency":"EUR","unit":"L","updated_at":"2026-06-24T18:13:16.821720+00:00"}]},{"id":"pl_xavvy_M_POL_10436","country":"PL","name":"ORLEN","brand":"ORLEN","address":"Laska 43 / 45","city":"Pabianice","lat":51.659456,"lon":19.323692,"source":"anwb.nl (ANWB POI API)","confidence":0.85,"prices":[{"fuel_type":"DIESEL","price":1.42,"currency":"EUR","unit":"L","updated_at":"2026-06-24T18:13:16.821720+00:00"},{"fuel_type":"E10","price":1.392,"currency":"EUR","unit":"L","updated_at":"2026-06-24T18:13:16.821720+00:00"}]},{"id":"pl_xavvy_M_POL_10437","country":"PL","name":"ORLEN","brand":"ORLEN","address":"Promenada","city":"Recz","lat":53.262578,"lon":15.545404,"source":"anwb.nl (ANWB POI API)","confidence":0.85,"prices":[{"fuel_type":"E10","price":1.39,"currency":"EUR","unit":"L","updated_at":"2026-06-24T18:13:16.821720+00:00"},{"fuel_type":"DIESEL","price":1.42,"currency":"EUR","unit":"L","updated_at":"2026-06-24T18:13:16.821720+00:00"}]},{"id":"pl_xavvy_M_POL_10438","country":"PL","name":"ORLEN","brand":"ORLEN","address":"Rynek 1","city":"Piątek","lat":52.069341,"lon":19.481149,"source":"anwb.nl (ANWB POI API)","confidence":0.85,"prices":[{"fuel_type":"DIESEL","price":1.42,"currency":"EUR","unit":"L","updated_at":"2026-06-24T18:13:16.821720+00:00"},{"fuel_type":"E10","price":1.392,"currency":"EUR","unit":"L","updated_at":"2026-06-24T18:13:16.821720+00:00"}]},{"id":"pl_xavvy_M_POL_10439","country":"PL","name":"ORLEN","brand":"ORLEN","address":"Sobieskiego 1","city":"Strzyzow","lat":49.871596,"lon":21.775165,"source":"anwb.nl (ANWB POI API)","confidence":0.85,"prices":[{"fuel_type":"E10","price":1.408,"currency":"EUR","unit":"L","updated_at":"2026-06-24T18:13:16.821720+00:00"},{"fuel_type":"DIESEL","price":1.42,"currency":"EUR","unit":"L","updated_at":"2026-06-24T18:13:16.821720+00:00"}]},{"id":"pl_xavvy_M_POL_10440","country":"PL","name":"ORLEN","brand":"ORLEN","address":"Podkarpacka 45","city":"Rzeszów","lat":50.013707,"lon":21.971473,"source":"anwb.nl (ANWB POI API)","confidence":0.85,"prices":[{"fuel_type":"DIESEL","price":1.42,"currency":"EUR","unit":"L","updated_at":"2026-06-24T18:13:16.821720+00:00"},{"fuel_type":"E10","price":1.392,"currency":"EUR","unit":"L","updated_at":"2026-06-24T18:13:16.821720+00:00"}]},{"id":"pl_xavvy_M_POL_10442","country":"PL","name":"ORLEN","brand":"ORLEN","address":"Lubuszan 1","city":"Sianow","lat":54.231057,"lon":16.308603,"source":"anwb.nl (ANWB POI API)","confidence":0.85,"prices":[{"fuel_type":"E10","price":1.39,"currency":"EUR","unit":"L","updated_at":"2026-06-24T18:13:16.821720+00:00"},{"fuel_type":"DIESEL","price":1.42,"currency":"EUR","unit":"L","updated_at":"2026-06-24T18:13:16.821720+00:00"}]},{"id":"pl_xavvy_M_POL_10443","country":"PL","name":"ORLEN","brand":"ORLEN","address":"Bystrzanska 96","city":"Bielsko-Biała","lat":49.782033,"lon":19.068612,"source":"anwb.nl (ANWB POI API)","confidence":0.85,"prices":[{"fuel_type":"E10","price":1.39,"currency":"EUR","unit":"L","updated_at":"2026-06-24T18:13:16.821720+00:00"},{"fuel_type":"DIESEL","price":1.42,"currency":"EUR","unit":"L","updated_at":"2026-06-24T18:13:16.821720+00:00"}]},{"id":"pl_xavvy_M_POL_10444","country":"PL","name":"ORLEN","brand":"ORLEN","address":"Opolska 33","city":"Niemodlin","lat":50.644578,"lon":17.640476,"source":"anwb.nl (ANWB POI API)","confidence":0.85,"prices":[{"fuel_type":"E10","price":1.394,"currency":"EUR","unit":"L","updated_at":"2026-06-24T18:13:16.821720+00:00"},{"fuel_type":"DIESEL","price":1.42,"currency":"EUR","unit":"L","updated_at":"2026-06-24T18:13:16.821720+00:00"}]},{"id":"pl_xavvy_M_POL_10445","country":"PL","name":"ORLEN","brand":"ORLEN","address":"Przedmiescie Dolne 2","city":"Biecz","lat":49.735431,"lon":21.264378,"source":"anwb.nl (ANWB POI API)","confidence":0.85,"prices":[{"fuel_type":"DIESEL","price":1.497,"currency":"EUR","unit":"L","updated_at":"2026-06-24T18:13:16.821720+00:00"},{"fuel_type":"E10","price":1.383,"currency":"EUR","unit":"L","updated_at":"2026-06-24T18:13:16.821720+00:00"}]},{"id":"pl_xavvy_M_POL_10446","country":"PL","name":"ORLEN","brand":"ORLEN","address":"Wadowicka 2","city":"Sucha Beskidzka","lat":49.751512,"lon":19.605677,"source":"anwb.nl (ANWB POI API)","confidence":0.85,"prices":[{"fuel_type":"E10","price":1.383,"currency":"EUR","unit":"L","updated_at":"2026-06-24T18:13:16.821720+00:00"},{"fuel_type":"DIESEL","price":1.42,"currency":"EUR","unit":"L","updated_at":"2026-06-24T18:13:16.821720+00:00"}]},{"id":"pl_xavvy_M_POL_10447","country":"PL","name":"ORLEN","brand":"ORLEN","address":"Wioslarska 1","city":"Krakow","lat":50.047994,"lon":19.902411,"source":"anwb.nl (ANWB POI API)","confidence":0.85,"prices":[{"fuel_type":"DIESEL","price":1.425,"currency":"EUR","unit":"L","updated_at":"2026-06-24T18:13:16.821720+00:00"},{"fuel_type":"E10","price":1.394,"currency":"EUR","unit":"L","updated_at":"2026-06-24T18:13:16.821720+00:00"}]},{"id":"pl_xavvy_M_POL_10448","country":"PL","name":"ORLEN","brand":"ORLEN","address":"Nawojowska 99","city":"Nowy Sacz","lat":49.602746,"lon":20.715584,"source":"anwb.nl (ANWB POI API)","confidence":0.85,"prices":[{"fuel_type":"E10","price":1.394,"currency":"EUR","unit":"L","updated_at":"2026-06-24T18:13:16.821720+00:00"},{"fuel_type":"DIESEL","price":1.397,"currency":"EUR","unit":"L","updated_at":"2026-06-24T18:13:16.821720+00:00"}]},{"id":"pl_xavvy_M_POL_10449","country":"PL","name":"ORLEN","brand":"ORLEN","address":"Ul. Barbary 105","city":"Częstochowa","lat":50.803006,"lon":19.087137,"source":"anwb.nl (ANWB POI API)","confidence":0.85,"prices":[{"fuel_type":"E10","price":1.399,"currency":"EUR","unit":"L","updated_at":"2026-06-24T18:13:16.821720+00:00"},{"fuel_type":"DIESEL","price":1.42,"currency":"EUR","unit":"L","updated_at":"2026-06-24T18:13:16.821720+00:00"}]},{"id":"pl_xavvy_M_POL_10450","country":"PL","name":"ORLEN","brand":"ORLEN","address":"Grabiszyńska 187","city":"Wroclaw","lat":51.098032,"lon":16.992777,"source":"anwb.nl (ANWB POI API)","confidence":0.85,"prices":[{"fuel_type":"DIESEL","price":1.42,"currency":"EUR","unit":"L","updated_at":"2026-06-24T18:13:16.821720+00:00"},{"fuel_type":"E10","price":1.394,"currency":"EUR","unit":"L","updated_at":"2026-06-24T18:13:16.821720+00:00"}]},{"id":"pl_xavvy_M_POL_10451","country":"PL","name":"ORLEN","brand":"ORLEN","address":"Rydza Smiglego 43","city":"Lodz","lat":51.738454,"lon":19.488014,"source":"anwb.nl (ANWB POI API)","confidence":0.85,"prices":[{"fuel_type":"DIESEL","price":1.42,"currency":"EUR","unit":"L","updated_at":"2026-06-24T18:13:16.821720+00:00"},{"fuel_type":"E10","price":1.392,"currency":"EUR","unit":"L","updated_at":"2026-06-24T18:13:16.821720+00:00"}]},{"id":"pl_xavvy_M_POL_10452","country":"PL","name":"ORLEN","brand":"ORLEN","address":"Szczecinska 20","city":"Lodz","lat":51.803379,"lon":19.367526,"source":"anwb.nl (ANWB POI API)","confidence":0.85,"prices":[{"fuel_type":"DIESEL","price":1.42,"currency":"EUR","unit":"L","updated_at":"2026-06-24T18:13:16.821720+00:00"},{"fuel_type":"E10","price":1.392,"currency":"EUR","unit":"L","updated_at":"2026-06-24T18:13:16.821720+00:00"}]},{"id":"pl_xavvy_M_POL_10453","country":"PL","name":"ORLEN","brand":"ORLEN","address":"Gdanska 1b","city":"Brusy","lat":53.880176,"lon":17.71556,"source":"anwb.nl (ANWB POI API)","confidence":0.85,"prices":[{"fuel_type":"DIESEL","price":1.42,"currency":"EUR","unit":"L","updated_at":"2026-06-24T18:13:16.821720+00:00"},{"fuel_type":"E10","price":1.392,"currency":"EUR","unit":"L","updated_at":"2026-06-24T18:13:16.821720+00:00"}]},{"id":"pl_xavvy_M_POL_10455","country":"PL","name":"ORLEN","brand":"ORLEN","address":"Bialostocka 18","city":"Siemiatycze","lat":52.444474,"lon":22.852375,"source":"anwb.nl (ANWB POI API)","confidence":0.85,"prices":[{"fuel_type":"DIESEL","price":1.42,"currency":"EUR","unit":"L","updated_at":"2026-06-24T18:13:16.821720+00:00"},{"fuel_type":"E10","price":1.385,"currency":"EUR","unit":"L","updated_at":"2026-06-24T18:13:16.821720+00:00"}]},{"id":"pl_xavvy_M_POL_10456","country":"PL","name":"ORLEN","brand":"ORLEN","address":"Nowohucka 71","city":"Krakow","lat":50.046203,"lon":19.977707,"source":"anwb.nl (ANWB POI API)","confidence":0.85,"prices":[{"fuel_type":"DIESEL","price":1.42,"currency":"EUR","unit":"L","updated_at":"2026-06-24T18:13:16.821720+00:00"},{"fuel_type":"E10","price":1.394,"currency":"EUR","unit":"L","updated_at":"2026-06-24T18:13:16.821720+00:00"}]},{"id":"pl_xavvy_M_POL_10457","country":"PL","name":"ORLEN","brand":"ORLEN","address":"Obywatelska 181b","city":"Lodz","lat":51.740394,"lon":19.420813,"source":"anwb.nl (ANWB POI API)","confidence":0.85,"prices":[{"fuel_type":"DIESEL","price":1.42,"currency":"EUR","unit":"L","updated_at":"2026-06-24T18:13:16.821720+00:00"},{"fuel_type":"E10","price":1.387,"currency":"EUR","unit":"L","updated_at":"2026-06-24T18:13:16.821720+00:00"}]},{"id":"pl_xavvy_M_POL_10458","country":"PL","name":"ORLEN","brand":"ORLEN","address":"Armii Krajowej 16b","city":"Brańsk","lat":52.749047,"lon":22.837009,"source":"anwb.nl (ANWB POI API)","confidence":0.85,"prices":[{"fuel_type":"E10","price":1.383,"currency":"EUR","unit":"L","updated_at":"2026-06-24T18:13:16.821720+00:00"},{"fuel_type":"DIESEL","price":1.42,"currency":"EUR","unit":"L","updated_at":"2026-06-24T18:13:16.821720+00:00"}]},{"id":"pl_xavvy_M_POL_10459","country":"PL","name":"ORLEN","brand":"ORLEN","address":"Konarskiego 18","city":"Sejny","lat":54.109314,"lon":23.337024,"source":"anwb.nl (ANWB POI API)","confidence":0.85,"prices":[{"fuel_type":"DIESEL","price":1.425,"currency":"EUR","unit":"L","updated_at":"2026-06-24T18:13:16.821720+00:00"},{"fuel_type":"E10","price":1.392,"currency":"EUR","unit":"L","updated_at":"2026-06-24T18:13:16.821720+00:00"}]},{"id":"pl_xavvy_M_POL_10460","country":"PL","name":"ORLEN","brand":"ORLEN","address":"Wyzwolenia 1","city":"Polaniec","lat":50.439274,"lon":21.287992,"source":"anwb.nl (ANWB POI API)","confidence":0.85,"prices":[{"fuel_type":"DIESEL","price":1.42,"currency":"EUR","unit":"L","updated_at":"2026-06-24T18:13:16.821720+00:00"},{"fuel_type":"E10","price":1.394,"currency":"EUR","unit":"L","updated_at":"2026-06-24T18:13:16.821720+00:00"}]},{"id":"pl_xavvy_M_POL_10461","country":"PL","name":"ORLEN","brand":"ORLEN","address":"Wrzesińska 43","city":"Pyzdry","lat":52.179312,"lon":17.681996,"source":"anwb.nl (ANWB POI API)","confidence":0.85,"prices":[{"fuel_type":"DIESEL","price":1.42,"currency":"EUR","unit":"L","updated_at":"2026-06-24T18:13:16.821720+00:00"},{"fuel_type":"E10","price":1.392,"currency":"EUR","unit":"L","updated_at":"2026-06-24T18:13:16.821720+00:00"}]},{"id":"pl_xavvy_M_POL_10462","country":"PL","name":"ORLEN","brand":"ORLEN","address":"Lubelska","city":"Janow Lubelski","lat":50.717992,"lon":22.393078,"source":"anwb.nl (ANWB POI API)","confidence":0.85,"prices":[{"fuel_type":"DIESEL","price":1.42,"currency":"EUR","unit":"L","updated_at":"2026-06-24T18:13:16.821720+00:00"},{"fuel_type":"E10","price":1.392,"currency":"EUR","unit":"L","updated_at":"2026-06-24T18:13:16.821720+00:00"}]},{"id":"pl_xavvy_M_POL_10463","country":"PL","name":"ORLEN","brand":"ORLEN","address":"Węgorzynko 6","city":"Miastko","lat":54.02119,"lon":16.976945,"source":"anwb.nl (ANWB POI API)","confidence":0.85,"prices":[{"fuel_type":"DIESEL","price":1.425,"currency":"EUR","unit":"L","updated_at":"2026-06-24T18:13:16.821720+00:00"},{"fuel_type":"E10","price":1.39,"currency":"EUR","unit":"L","updated_at":"2026-06-24T18:13:16.821720+00:00"}]},{"id":"pl_xavvy_M_POL_10464","country":"PL","name":"ORLEN","brand":"ORLEN","address":"Śląska 45","city":"Gdynia","lat":54.513449,"lon":18.533597,"source":"anwb.nl (ANWB POI API)","confidence":0.85,"prices":[{"fuel_type":"DIESEL","price":1.418,"currency":"EUR","unit":"L","updated_at":"2026-06-24T18:13:16.821720+00:00"},{"fuel_type":"E10","price":1.383,"currency":"EUR","unit":"L","updated_at":"2026-06-24T18:13:16.821720+00:00"}]},{"id":"pl_xavvy_M_POL_10466","country":"PL","name":"ORLEN","brand":"ORLEN","address":"Obrońców Stalingradu 72","city":"Opole","lat":50.650166,"lon":17.972304,"source":"anwb.nl (ANWB POI API)","confidence":0.85,"prices":[{"fuel_type":"DIESEL","price":1.42,"currency":"EUR","unit":"L","updated_at":"2026-06-24T18:13:16.821720+00:00"},{"fuel_type":"E10","price":1.394,"currency":"EUR","unit":"L","updated_at":"2026-06-24T18:13:16.821720+00:00"}]},{"id":"pl_xavvy_M_POL_10467","country":"PL","name":"ORLEN","brand":"ORLEN","address":"Kielecka","city":"Lopuszno","lat":50.949583,"lon":20.255023,"source":"anwb.nl (ANWB POI API)","confidence":0.85,"prices":[{"fuel_type":"DIESEL","price":1.42,"currency":"EUR","unit":"L","updated_at":"2026-06-24T18:13:16.821720+00:00"},{"fuel_type":"E10","price":1.394,"currency":"EUR","unit":"L","updated_at":"2026-06-24T18:13:16.821720+00:00"}]},{"id":"pl_xavvy_M_POL_10469","country":"PL","name":"ORLEN","brand":"ORLEN","address":"Aleja Niepodległości 5","city":"Starachowice","lat":51.031316,"lon":21.076758,"source":"anwb.nl (ANWB POI API)","confidence":0.85,"prices":[{"fuel_type":"E10","price":1.39,"currency":"EUR","unit":"L","updated_at":"2026-06-24T18:13:16.821720+00:00"},{"fuel_type":"DIESEL","price":1.42,"currency":"EUR","unit":"L","updated_at":"2026-06-24T18:13:16.821720+00:00"}]},{"id":"pl_xavvy_M_POL_10470","country":"PL","name":"ORLEN","brand":"ORLEN","address":"Kolberga 2","city":"Opoczno","lat":51.369389,"lon":20.295785,"source":"anwb.nl (ANWB POI API)","confidence":0.85,"prices":[{"fuel_type":"DIESEL","price":1.42,"currency":"EUR","unit":"L","updated_at":"2026-06-24T18:13:16.821720+00:00"},{"fuel_type":"E10","price":1.394,"currency":"EUR","unit":"L","updated_at":"2026-06-24T18:13:16.821720+00:00"}]},{"id":"pl_xavvy_M_POL_10471","country":"PL","name":"ORLEN","brand":"ORLEN","address":"Al. Niepodleglosci 45","city":"Pila","lat":53.15785,"lon":16.738358,"source":"anwb.nl (ANWB POI API)","confidence":0.85,"prices":[{"fuel_type":"DIESEL","price":1.42,"currency":"EUR","unit":"L","updated_at":"2026-06-24T18:13:16.821720+00:00"},{"fuel_type":"E10","price":1.392,"currency":"EUR","unit":"L","updated_at":"2026-06-24T18:13:16.821720+00:00"}]},{"id":"pl_xavvy_M_POL_10472","country":"PL","name":"ORLEN","brand":"ORLEN","address":"Jana Pawla Ii 61","city":"Sieradz","lat":51.58585,"lon":18.721322,"source":"anwb.nl (ANWB POI API)","confidence":0.85,"prices":[{"fuel_type":"DIESEL","price":1.425,"currency":"EUR","unit":"L","updated_at":"2026-06-24T18:13:16.821720+00:00"},{"fuel_type":"E10","price":1.39,"currency":"EUR","unit":"L","updated_at":"2026-06-24T18:13:16.821720+00:00"}]},{"id":"pl_xavvy_M_POL_10473","country":"PL","name":"ORLEN","brand":"ORLEN","address":"Tamka 2","city":"Tomaszow Mazowiecki","lat":51.553658,"lon":20.017857,"source":"anwb.nl (ANWB POI API)","confidence":0.85,"prices":[{"fuel_type":"DIESEL","price":1.406,"currency":"EUR","unit":"L","updated_at":"2026-06-24T18:13:16.821720+00:00"},{"fuel_type":"E10","price":1.364,"currency":"EUR","unit":"L","updated_at":"2026-06-24T18:13:16.821720+00:00"}]},{"id":"pl_xavvy_M_POL_10479598","country":"PL","name":"MOYA","brand":"MOYA","address":"Jana Iii Sobieskiego 79","city":"Skierniewice","lat":51.970451,"lon":20.172422,"source":"anwb.nl (ANWB POI API)","confidence":0.85,"prices":[{"fuel_type":"E10","price":1.35,"currency":"EUR","unit":"L","updated_at":"2026-06-24T18:13:16.821720+00:00"},{"fuel_type":"DIESEL","price":1.35,"currency":"EUR","unit":"L","updated_at":"2026-06-24T18:13:16.821720+00:00"}]},{"id":"pl_xavvy_M_POL_10481573","country":"PL","name":"OLKOP","brand":"OLKOP","address":"Ul. Tadeusza Zawadzkiego Zoski 20","city":"Dzierzgon","lat":53.91773,"lon":19.346054,"source":"anwb.nl (ANWB POI API)","confidence":0.85,"prices":[{"fuel_type":"DIESEL","price":1.35,"currency":"EUR","unit":"L","updated_at":"2026-06-24T18:13:16.821720+00:00"}]},{"id":"pl_xavvy_M_POL_10481578","country":"PL","name":"OLKOP","brand":"OLKOP","address":"Grudziadzka 17a","city":"Gardeja","lat":53.604776,"lon":18.939774,"source":"anwb.nl (ANWB POI API)","confidence":0.85,"prices":[{"fuel_type":"E10","price":1.481,"currency":"EUR","unit":"L","updated_at":"2026-06-24T18:13:16.821720+00:00"},{"fuel_type":"DIESEL","price":1.35,"currency":"EUR","unit":"L","updated_at":"2026-06-24T18:13:16.821720+00:00"}]},{"id":"pl_xavvy_M_POL_10504507","country":"PL","name":"PIEPRZYK","brand":"PIEPRZYK","address":"Wiejska 1g","city":"Debica","lat":50.037637,"lon":21.418907,"source":"anwb.nl (ANWB POI API)","confidence":0.85,"prices":[{"fuel_type":"E10","price":1.383,"currency":"EUR","unit":"L","updated_at":"2026-06-24T18:13:16.821720+00:00"},{"fuel_type":"DIESEL","price":1.35,"currency":"EUR","unit":"L","updated_at":"2026-06-24T18:13:16.821720+00:00"}]},{"id":"pl_xavvy_M_POL_10504509","country":"PL","name":"PIEPRZYK","brand":"PIEPRZYK","address":"Polaniecka 21","city":"Osiek","lat":50.516447,"lon":21.437731,"source":"anwb.nl (ANWB POI API)","confidence":0.85,"prices":[{"fuel_type":"DIESEL","price":1.35,"currency":"EUR","unit":"L","updated_at":"2026-06-24T18:13:16.821720+00:00"},{"fuel_type":"E10","price":1.355,"currency":"EUR","unit":"L","updated_at":"2026-06-24T18:13:16.821720+00:00"}]},{"id":"pl_xavvy_M_POL_10504600","country":"PL","name":"PIEPRZYK","brand":"PIEPRZYK","address":"Rybnicka 135","city":"Racibórz","lat":50.084879,"lon":18.271281,"source":"anwb.nl (ANWB POI API)","confidence":0.85,"prices":[{"fuel_type":"E10","price":1.343,"currency":"EUR","unit":"L","updated_at":"2026-06-24T18:13:16.821720+00:00"},{"fuel_type":"DIESEL","price":1.35,"currency":"EUR","unit":"L","updated_at":"2026-06-24T18:13:16.821720+00:00"}]},{"id":"pl_xavvy_M_POL_10521799","country":"PL","name":"ORLEN","brand":"ORLEN","address":"Mop Gruczno Zachód [Kolonia Sienkiewicza 7a]","city":"Gruczno","lat":53.342938,"lon":18.296049,"source":"anwb.nl (ANWB POI API)","confidence":0.85,"prices":[{"fuel_type":"DIESEL","price":1.42,"currency":"EUR","unit":"L","updated_at":"2026-06-24T18:13:16.821720+00:00"},{"fuel_type":"E10","price":1.392,"currency":"EUR","unit":"L","updated_at":"2026-06-24T18:13:16.821720+00:00"}]},{"id":"pl_xavvy_M_POL_10523467","country":"PL","name":"EPT","brand":"EPT","address":"Budowniczych Portu Polnocnego 1","city":"Gdansk","lat":54.387061,"lon":18.691215,"source":"anwb.nl (ANWB POI API)","confidence":0.85,"prices":[{"fuel_type":"DIESEL","price":1.35,"currency":"EUR","unit":"L","updated_at":"2026-06-24T18:13:16.821720+00:00"},{"fuel_type":"E10","price":1.373,"currency":"EUR","unit":"L","updated_at":"2026-06-24T18:13:16.821720+00:00"}]},{"id":"pl_xavvy_M_POL_10549","country":"PL","name":"BP","brand":"BP","address":"Poznańska 151","city":"Ozarow Mazowiecki","lat":52.209628,"lon":20.809876,"source":"anwb.nl (ANWB POI API)","confidence":0.85,"prices":[{"fuel_type":"DIESEL","price":1.425,"currency":"EUR","unit":"L","updated_at":"2026-06-24T18:13:16.821720+00:00"},{"fuel_type":"E10","price":1.383,"currency":"EUR","unit":"L","updated_at":"2026-06-24T18:13:16.821720+00:00"}]},{"id":"pl_xavvy_M_POL_10568002","country":"PL","name":"ORLEN","brand":"ORLEN","address":"Ul. Kapitulna 41","city":"Wloclawek","lat":52.653916,"lon":19.048157,"source":"anwb.nl (ANWB POI API)","confidence":0.85,"prices":[{"fuel_type":"DIESEL","price":1.422,"currency":"EUR","unit":"L","updated_at":"2026-06-24T18:13:16.821720+00:00"},{"fuel_type":"E10","price":1.387,"currency":"EUR","unit":"L","updated_at":"2026-06-24T18:13:16.821720+00:00"}]},{"id":"pl_xavvy_M_POL_10590322","country":"PL","name":"ORLEN","brand":"ORLEN","address":"Mickiewicza 71a","city":"Tuchow","lat":49.883926,"lon":21.05312,"source":"anwb.nl (ANWB POI API)","confidence":0.85,"prices":[{"fuel_type":"DIESEL","price":1.418,"currency":"EUR","unit":"L","updated_at":"2026-06-24T18:13:16.821720+00:00"},{"fuel_type":"E10","price":1.383,"currency":"EUR","unit":"L","updated_at":"2026-06-24T18:13:16.821720+00:00"}]},{"id":"pl_xavvy_M_POL_10590333","country":"PL","name":"GF ENERGIA","brand":"GF ENERGIA","address":"Przestrzenna 3","city":"Szczecin","lat":53.398134,"lon":14.618961,"source":"anwb.nl (ANWB POI API)","confidence":0.85,"prices":[{"fuel_type":"DIESEL","price":1.35,"currency":"EUR","unit":"L","updated_at":"2026-06-24T18:13:16.821720+00:00"}]},{"id":"pl_xavvy_M_POL_10590481","country":"PL","name":"AUTO-KOMPLEX","brand":"AUTO-KOMPLEX","address":"Opolska 15a","city":"Strzelce Opolskie","lat":50.519706,"lon":18.281513,"source":"anwb.nl (ANWB POI API)","confidence":0.85,"prices":[{"fuel_type":"E10","price":1.518,"currency":"EUR","unit":"L","updated_at":"2026-06-24T18:13:16.821720+00:00"},{"fuel_type":"DIESEL","price":1.35,"currency":"EUR","unit":"L","updated_at":"2026-06-24T18:13:16.821720+00:00"}]},{"id":"pl_xavvy_M_POL_10597195","country":"PL","name":"ORLEN","brand":"ORLEN","address":"Dziecinin 3a","city":"Fajsławice","lat":51.08431,"lon":22.974615,"source":"anwb.nl (ANWB POI API)","confidence":0.85,"prices":[{"fuel_type":"E10","price":1.39,"currency":"EUR","unit":"L","updated_at":"2026-06-24T18:13:16.821720+00:00"},{"fuel_type":"DIESEL","price":1.422,"currency":"EUR","unit":"L","updated_at":"2026-06-24T18:13:16.821720+00:00"}]},{"id":"pl_xavvy_M_POL_10616582","country":"PL","name":"EPT","brand":"EPT","address":"Gdanska 60","city":"Suchy Dab","lat":54.216179,"lon":18.76326,"source":"anwb.nl (ANWB POI API)","confidence":0.85,"prices":[{"fuel_type":"E10","price":1.467,"currency":"EUR","unit":"L","updated_at":"2026-06-24T18:13:16.821720+00:00"},{"fuel_type":"DIESEL","price":1.35,"currency":"EUR","unit":"L","updated_at":"2026-06-24T18:13:16.821720+00:00"}]},{"id":"pl_xavvy_M_POL_10618918","country":"PL","name":"ORLEN","brand":"ORLEN","address":"Ks. Olszaka 94","city":"Konczyce Wielkie","lat":49.822154,"lon":18.668853,"source":"anwb.nl (ANWB POI API)","confidence":0.85,"prices":[{"fuel_type":"E10","price":1.364,"currency":"EUR","unit":"L","updated_at":"2026-06-24T18:13:16.821720+00:00"},{"fuel_type":"DIESEL","price":1.406,"currency":"EUR","unit":"L","updated_at":"2026-06-24T18:13:16.821720+00:00"}]},{"id":"pl_xavvy_M_POL_10626122","country":"PL","name":"MKAJ SKORUPA","brand":"MKAJ SKORUPA","address":"Aleksandrowska 87","city":"Jedlicze A","lat":51.870726,"lon":19.319941,"source":"anwb.nl (ANWB POI API)","confidence":0.85,"prices":[{"fuel_type":"DIESEL","price":1.35,"currency":"EUR","unit":"L","updated_at":"2026-06-24T18:13:16.821720+00:00"}]},{"id":"pl_xavvy_M_POL_10626211","country":"PL","name":"MOL","brand":"MOL","address":"Mop Kochlice Wschód [Aleja Kochlicka 2]","city":"Kochlice","lat":51.283063,"lon":16.151436,"source":"anwb.nl (ANWB POI API)","confidence":0.85,"prices":[{"fuel_type":"DIESEL","price":1.425,"currency":"EUR","unit":"L","updated_at":"2026-06-24T18:13:16.821720+00:00"},{"fuel_type":"E10","price":1.383,"currency":"EUR","unit":"L","updated_at":"2026-06-24T18:13:16.821720+00:00"}]},{"id":"pl_xavvy_M_POL_10626356","country":"PL","name":"MOL","brand":"MOL","address":"Mop Police [Police Mostowe 19]","city":"Police Mostowe","lat":52.135414,"lon":18.63489,"source":"anwb.nl (ANWB POI API)","confidence":0.85,"prices":[{"fuel_type":"DIESEL","price":1.425,"currency":"EUR","unit":"L","updated_at":"2026-06-24T18:13:16.821720+00:00"},{"fuel_type":"E10","price":1.383,"currency":"EUR","unit":"L","updated_at":"2026-06-24T18:13:16.821720+00:00"}]},{"id":"pl_xavvy_M_POL_10626483","country":"PL","name":"SHELL","brand":"SHELL","address":"Kolonia Poreby","city":"Torzym","lat":52.317652,"lon":15.04152,"source":"anwb.nl (ANWB POI API)","confidence":0.85,"prices":[{"fuel_type":"DIESEL","price":1.457,"currency":"EUR","unit":"L","updated_at":"2026-06-24T18:13:16.821720+00:00"},{"fuel_type":"E10","price":1.411,"currency":"EUR","unit":"L","updated_at":"2026-06-24T18:13:16.821720+00:00"}]},{"id":"pl_xavvy_M_POL_10636","country":"PL","name":"SHELL","brand":"SHELL","address":"Szczecinska 81","city":"Stargard Szczecinski","lat":53.34259,"lon":14.99028,"source":"anwb.nl (ANWB POI API)","confidence":0.85,"prices":[{"fuel_type":"E10","price":1.399,"currency":"EUR","unit":"L","updated_at":"2026-06-24T18:13:16.821720+00:00"},{"fuel_type":"DIESEL","price":1.425,"currency":"EUR","unit":"L","updated_at":"2026-06-24T18:13:16.821720+00:00"}]},{"id":"pl_xavvy_M_POL_10648461","country":"PL","name":"BDG","brand":"BDG","address":"Tarnowska 136","city":"Zabno","lat":50.116631,"lon":20.889623,"source":"anwb.nl (ANWB POI API)","confidence":0.85,"prices":[{"fuel_type":"DIESEL","price":1.35,"currency":"EUR","unit":"L","updated_at":"2026-06-24T18:13:16.821720+00:00"}]},{"id":"pl_xavvy_M_POL_10648462","country":"PL","name":"BDG","brand":"BDG","address":"Tarnowska 41","city":"Tuchow","lat":49.908036,"lon":21.059097,"source":"anwb.nl (ANWB POI API)","confidence":0.85,"prices":[{"fuel_type":"DIESEL","price":1.35,"currency":"EUR","unit":"L","updated_at":"2026-06-24T18:13:16.821720+00:00"}]},{"id":"pl_xavvy_M_POL_10653695","country":"PL","name":"MOYA","brand":"MOYA","address":"Ul. Kartuska 55","city":"Parchowo","lat":54.20937,"lon":17.68233,"source":"anwb.nl (ANWB POI API)","confidence":0.85,"prices":[{"fuel_type":"DIESEL","price":1.387,"currency":"EUR","unit":"L","updated_at":"2026-06-24T18:13:16.821720+00:00"},{"fuel_type":"E10","price":1.345,"currency":"EUR","unit":"L","updated_at":"2026-06-24T18:13:16.821720+00:00"}]},{"id":"pl_xavvy_M_POL_10679095","country":"PL","name":"ORLEN","brand":"ORLEN","address":"Mazurska 13","city":"Elblag","lat":54.186853,"lon":19.387417,"source":"anwb.nl (ANWB POI API)","confidence":0.85,"prices":[{"fuel_type":"E10","price":1.399,"currency":"EUR","unit":"L","updated_at":"2026-06-24T18:13:16.821720+00:00"},{"fuel_type":"DIESEL","price":1.418,"currency":"EUR","unit":"L","updated_at":"2026-06-24T18:13:16.821720+00:00"}]},{"id":"pl_xavvy_M_POL_10690456","country":"PL","name":"AVIA","brand":"AVIA","address":"Ul. Pomorska 138 - 143","city":"Szczecin","lat":53.388612,"lon":14.67701,"source":"anwb.nl (ANWB POI API)","confidence":0.85,"prices":[{"fuel_type":"E10","price":1.355,"currency":"EUR","unit":"L","updated_at":"2026-06-24T18:13:16.821720+00:00"},{"fuel_type":"DIESEL","price":1.35,"currency":"EUR","unit":"L","updated_at":"2026-06-24T18:13:16.821720+00:00"}]},{"id":"pl_xavvy_M_POL_10690529","country":"PL","name":"AZAREX","brand":"AZAREX","address":"Al. Marsz. J. Pilsudzkiego 70","city":"Legnica","lat":51.202615,"lon":16.195509,"source":"anwb.nl (ANWB POI API)","confidence":0.85,"prices":[{"fuel_type":"DIESEL","price":1.385,"currency":"EUR","unit":"L","updated_at":"2026-06-24T18:13:16.821720+00:00"},{"fuel_type":"E10","price":1.341,"currency":"EUR","unit":"L","updated_at":"2026-06-24T18:13:16.821720+00:00"}]},{"id":"pl_xavvy_M_POL_10717553","country":"PL","name":"SLOVNAFT PARTNER","brand":"SLOVNAFT PARTNER","address":"Ul. Adama Mickiewicza 10","city":"Pilica","lat":50.46081,"lon":19.65681,"source":"anwb.nl (ANWB POI API)","confidence":0.85,"prices":[{"fuel_type":"E10","price":1.401,"currency":"EUR","unit":"L","updated_at":"2026-06-24T18:13:16.821720+00:00"},{"fuel_type":"DIESEL","price":1.35,"currency":"EUR","unit":"L","updated_at":"2026-06-24T18:13:16.821720+00:00"}]},{"id":"pl_xavvy_M_POL_10717554","country":"PL","name":"SLOVNAFT","brand":"SLOVNAFT","address":"Ul. Furgoła 163","city":"Czerwionka-Leczczyny","lat":50.163749,"lon":18.699946,"source":"anwb.nl (ANWB POI API)","confidence":0.85,"prices":[{"fuel_type":"E10","price":1.352,"currency":"EUR","unit":"L","updated_at":"2026-06-24T18:13:16.821720+00:00"},{"fuel_type":"DIESEL","price":1.385,"currency":"EUR","unit":"L","updated_at":"2026-06-24T18:13:16.821720+00:00"}]},{"id":"pl_xavvy_M_POL_10717562","country":"PL","name":"SLOVNAFT","brand":"SLOVNAFT","address":"Grodzka 7b","city":"Grabów Nad Prosną","lat":51.505117,"lon":18.12689,"source":"anwb.nl (ANWB POI API)","confidence":0.85,"prices":[{"fuel_type":"E10","price":1.495,"currency":"EUR","unit":"L","updated_at":"2026-06-24T18:13:16.821720+00:00"},{"fuel_type":"DIESEL","price":1.35,"currency":"EUR","unit":"L","updated_at":"2026-06-24T18:13:16.821720+00:00"}]},{"id":"pl_xavvy_M_POL_10772091","country":"PL","name":"ORLEN","brand":"ORLEN","address":"Slowianska 32","city":"Reszel","lat":54.044173,"lon":21.156656,"source":"anwb.nl (ANWB POI API)","confidence":0.85,"prices":[{"fuel_type":"E10","price":1.394,"currency":"EUR","unit":"L","updated_at":"2026-06-24T18:13:16.821720+00:00"},{"fuel_type":"DIESEL","price":1.42,"currency":"EUR","unit":"L","updated_at":"2026-06-24T18:13:16.821720+00:00"}]},{"id":"pl_xavvy_M_POL_10772111","country":"PL","name":"OMEGA PILZNO","brand":"OMEGA PILZNO","address":"Rzeszowska 4","city":"Kolbuszowa","lat":50.243279,"lon":21.778601,"source":"anwb.nl (ANWB POI API)","confidence":0.85,"prices":[{"fuel_type":"DIESEL","price":1.35,"currency":"EUR","unit":"L","updated_at":"2026-06-24T18:13:16.821720+00:00"}]},{"id":"pl_xavvy_M_POL_10772119","country":"PL","name":"MOYA","brand":"MOYA","address":"Ul. Strzowska 83","city":"Gorlice","lat":49.662315,"lon":21.146303,"source":"anwb.nl (ANWB POI API)","confidence":0.85,"prices":[{"fuel_type":"E10","price":1.352,"currency":"EUR","unit":"L","updated_at":"2026-06-24T18:13:16.821720+00:00"},{"fuel_type":"DIESEL","price":1.35,"currency":"EUR","unit":"L","updated_at":"2026-06-24T18:13:16.821720+00:00"}]},{"id":"pl_xavvy_M_POL_10772120","country":"PL","name":"MOYA","brand":"MOYA","address":"Trzciana 490","city":"Trzciana","lat":49.847586,"lon":20.358981,"source":"anwb.nl (ANWB POI API)","confidence":0.85,"prices":[{"fuel_type":"DIESEL","price":1.35,"currency":"EUR","unit":"L","updated_at":"2026-06-24T18:13:16.821720+00:00"}]},{"id":"pl_xavvy_M_POL_10772121","country":"PL","name":"MOYA","brand":"MOYA","address":"Ul. Szosa Mazowiecka 28","city":"Sokoly","lat":52.984352,"lon":22.690421,"source":"anwb.nl (ANWB POI API)","confidence":0.85,"prices":[{"fuel_type":"E10","price":1.355,"currency":"EUR","unit":"L","updated_at":"2026-06-24T18:13:16.821720+00:00"},{"fuel_type":"DIESEL","price":1.35,"currency":"EUR","unit":"L","updated_at":"2026-06-24T18:13:16.821720+00:00"}]},{"id":"pl_xavvy_M_POL_10772140","country":"PL","name":"MOYA","brand":"MOYA","address":"Ul. Jesionowa 2","city":"Myszkow","lat":50.562238,"lon":19.303716,"source":"anwb.nl (ANWB POI API)","confidence":0.85,"prices":[{"fuel_type":"E10","price":1.383,"currency":"EUR","unit":"L","updated_at":"2026-06-24T18:13:16.821720+00:00"},{"fuel_type":"DIESEL","price":1.35,"currency":"EUR","unit":"L","updated_at":"2026-06-24T18:13:16.821720+00:00"}]},{"id":"pl_xavvy_M_POL_10774395","country":"PL","name":"MOYA","brand":"MOYA","address":"Ul. Henryka Dobrzyckiego 7","city":"Ceglow","lat":52.151053,"lon":21.728421,"source":"anwb.nl (ANWB POI API)","confidence":0.85,"prices":[{"fuel_type":"E10","price":1.343,"currency":"EUR","unit":"L","updated_at":"2026-06-24T18:13:16.821720+00:00"},{"fuel_type":"DIESEL","price":1.35,"currency":"EUR","unit":"L","updated_at":"2026-06-24T18:13:16.821720+00:00"}]},{"id":"pl_xavvy_M_POL_1078540","country":"PL","name":"BP","brand":"BP","address":"Aleja Solidarnosci 13","city":"Warszawa","lat":52.2579,"lon":21.04312,"source":"anwb.nl (ANWB POI API)","confidence":0.85,"prices":[{"fuel_type":"DIESEL","price":1.446,"currency":"EUR","unit":"L","updated_at":"2026-06-24T18:13:16.821720+00:00"},{"fuel_type":"E10","price":1.399,"currency":"EUR","unit":"L","updated_at":"2026-06-24T18:13:16.821720+00:00"}]},{"id":"pl_xavvy_M_POL_10805777","country":"PL","name":"BP","brand":"BP","address":"Olszanica 5a","city":"Olszanica","lat":49.47219,"lon":22.42671,"source":"anwb.nl (ANWB POI API)","confidence":0.85,"prices":[{"fuel_type":"DIESEL","price":1.497,"currency":"EUR","unit":"L","updated_at":"2026-06-24T18:13:16.821720+00:00"},{"fuel_type":"E10","price":1.387,"currency":"EUR","unit":"L","updated_at":"2026-06-24T18:13:16.821720+00:00"}]},{"id":"pl_xavvy_M_POL_10809697","country":"PL","name":"AVIA","brand":"AVIA","address":"Raba Nizna 320","city":"Mszana Dolna","lat":49.631763,"lon":20.013194,"source":"anwb.nl (ANWB POI API)","confidence":0.85,"prices":[{"fuel_type":"DIESEL","price":1.35,"currency":"EUR","unit":"L","updated_at":"2026-06-24T18:13:16.821720+00:00"},{"fuel_type":"E10","price":1.355,"currency":"EUR","unit":"L","updated_at":"2026-06-24T18:13:16.821720+00:00"}]},{"id":"pl_xavvy_M_POL_10823","country":"PL","name":"ORLEN","brand":"ORLEN","address":"Ul. Krzywoustego 48","city":"Poznan","lat":52.387496,"lon":16.967401,"source":"anwb.nl (ANWB POI API)","confidence":0.85,"prices":[{"fuel_type":"DIESEL","price":1.42,"currency":"EUR","unit":"L","updated_at":"2026-06-24T18:13:16.821720+00:00"},{"fuel_type":"E10","price":1.392,"currency":"EUR","unit":"L","updated_at":"2026-06-24T18:13:16.821720+00:00"}]},{"id":"pl_xavvy_M_POL_10842","country":"PL","name":"KURDEK","brand":"KURDEK","address":"Pomorska 119","city":"Suchan","lat":53.276726,"lon":15.337944,"source":"anwb.nl (ANWB POI API)","confidence":0.85,"prices":[{"fuel_type":"E10","price":1.392,"currency":"EUR","unit":"L","updated_at":"2026-06-24T18:13:16.821720+00:00"},{"fuel_type":"DIESEL","price":1.432,"currency":"EUR","unit":"L","updated_at":"2026-06-24T18:13:16.821720+00:00"}]},{"id":"pl_xavvy_M_POL_10876119","country":"PL","name":"ESCA","brand":"ESCA","address":"Boleslawa Chrobrego 77f","city":"Wojcieszow","lat":50.947462,"lon":15.922949,"source":"anwb.nl (ANWB POI API)","confidence":0.85,"prices":[{"fuel_type":"DIESEL","price":1.35,"currency":"EUR","unit":"L","updated_at":"2026-06-24T18:13:16.821720+00:00"}]},{"id":"pl_xavvy_M_POL_10876230","country":"PL","name":"SHELL","brand":"SHELL","address":"Plonsk 62","city":"Dalanowek","lat":52.589177,"lon":20.448339,"source":"anwb.nl (ANWB POI API)","confidence":0.85,"prices":[{"fuel_type":"E10","price":1.385,"currency":"EUR","unit":"L","updated_at":"2026-06-24T18:13:16.821720+00:00"},{"fuel_type":"DIESEL","price":1.422,"currency":"EUR","unit":"L","updated_at":"2026-06-24T18:13:16.821720+00:00"}]},{"id":"pl_xavvy_M_POL_1091346","country":"PL","name":"ORLEN","brand":"ORLEN","address":"Al. Generala Wladyslawa Andersa 44","city":"Bielsko-Biala","lat":49.801061,"lon":19.040249,"source":"anwb.nl (ANWB POI API)","confidence":0.85,"prices":[{"fuel_type":"DIESEL","price":1.42,"currency":"EUR","unit":"L","updated_at":"2026-06-24T18:13:16.821720+00:00"},{"fuel_type":"E10","price":1.392,"currency":"EUR","unit":"L","updated_at":"2026-06-24T18:13:16.821720+00:00"}]},{"id":"pl_xavvy_M_POL_1091449","country":"PL","name":"PIEPRZYK","brand":"PIEPRZYK","address":"Gnieznienska 1","city":"Wierzenica","lat":52.440473,"lon":17.056854,"source":"anwb.nl (ANWB POI API)","confidence":0.85,"prices":[{"fuel_type":"DIESEL","price":1.35,"currency":"EUR","unit":"L","updated_at":"2026-06-24T18:13:16.821720+00:00"},{"fuel_type":"E10","price":1.355,"currency":"EUR","unit":"L","updated_at":"2026-06-24T18:13:16.821720+00:00"}]},{"id":"pl_xavvy_M_POL_1091482","country":"PL","name":"PIEPRZYK","brand":"PIEPRZYK","address":"Koszuty 16a","city":"Slupia Wielka","lat":52.233497,"lon":17.177384,"source":"anwb.nl (ANWB POI API)","confidence":0.85,"prices":[{"fuel_type":"E10","price":1.345,"currency":"EUR","unit":"L","updated_at":"2026-06-24T18:13:16.821720+00:00"},{"fuel_type":"DIESEL","price":1.35,"currency":"EUR","unit":"L","updated_at":"2026-06-24T18:13:16.821720+00:00"}]},{"id":"pl_xavvy_M_POL_1091484","country":"PL","name":"MOYA","brand":"MOYA","address":"Ul. Glowna 29","city":"Wola Rakowa","lat":51.674708,"lon":19.606127,"source":"anwb.nl (ANWB POI API)","confidence":0.85,"prices":[{"fuel_type":"E10","price":1.355,"currency":"EUR","unit":"L","updated_at":"2026-06-24T18:13:16.821720+00:00"},{"fuel_type":"DIESEL","price":1.35,"currency":"EUR","unit":"L","updated_at":"2026-06-24T18:13:16.821720+00:00"}]},{"id":"pl_xavvy_M_POL_1092932","country":"PL","name":"CIRCLE K","brand":"CIRCLE K","address":"Ul. Marsz. Piłsudskiego 124a","city":"Końskie","lat":51.195251,"lon":20.394708,"source":"anwb.nl (ANWB POI API)","confidence":0.85,"prices":[{"fuel_type":"E10","price":1.411,"currency":"EUR","unit":"L","updated_at":"2026-06-24T18:13:16.821720+00:00"},{"fuel_type":"DIESEL","price":1.422,"currency":"EUR","unit":"L","updated_at":"2026-06-24T18:13:16.821720+00:00"}]},{"id":"pl_xavvy_M_POL_1093820","country":"PL","name":"MOYA","brand":"MOYA","address":"Ul. Objazdowa 26b","city":"Klodzko","lat":50.450148,"lon":16.640473,"source":"anwb.nl (ANWB POI API)","confidence":0.85,"prices":[{"fuel_type":"E10","price":1.373,"currency":"EUR","unit":"L","updated_at":"2026-06-24T18:13:16.821720+00:00"},{"fuel_type":"DIESEL","price":1.35,"currency":"EUR","unit":"L","updated_at":"2026-06-24T18:13:16.821720+00:00"}]},{"id":"pl_xavvy_M_POL_1093822","country":"PL","name":"MOYA","brand":"MOYA","address":"Ul. Koszalinska 27 A","city":"Czluchow","lat":53.673037,"lon":17.347037,"source":"anwb.nl (ANWB POI API)","confidence":0.85,"prices":[{"fuel_type":"DIESEL","price":1.35,"currency":"EUR","unit":"L","updated_at":"2026-06-24T18:13:16.821720+00:00"},{"fuel_type":"E10","price":1.35,"currency":"EUR","unit":"L","updated_at":"2026-06-24T18:13:16.821720+00:00"}]},{"id":"pl_xavvy_M_POL_10944582","country":"PL","name":"ORLEN","brand":"ORLEN","address":"Wieprzow Ordynacki 154a","city":"Wieprzow Ordynacki","lat":50.484882,"lon":23.447481,"source":"anwb.nl (ANWB POI API)","confidence":0.85,"prices":[{"fuel_type":"E10","price":1.38,"currency":"EUR","unit":"L","updated_at":"2026-06-24T18:13:16.821720+00:00"},{"fuel_type":"DIESEL","price":1.42,"currency":"EUR","unit":"L","updated_at":"2026-06-24T18:13:16.821720+00:00"}]},{"id":"pl_xavvy_M_POL_10953020","country":"PL","name":"AVIA","brand":"AVIA","address":"Ul. Targowa 2","city":"Limanowa","lat":49.706194,"lon":20.42708,"source":"anwb.nl (ANWB POI API)","confidence":0.85,"prices":[{"fuel_type":"E10","price":1.343,"currency":"EUR","unit":"L","updated_at":"2026-06-24T18:13:16.821720+00:00"},{"fuel_type":"DIESEL","price":1.35,"currency":"EUR","unit":"L","updated_at":"2026-06-24T18:13:16.821720+00:00"}]},{"id":"pl_xavvy_M_POL_10953026","country":"PL","name":"BP","brand":"BP","address":"Ul. Kasinka Mala 1031","city":"Kasinka Mala","lat":49.710619,"lon":20.012195,"source":"anwb.nl (ANWB POI API)","confidence":0.85,"prices":[{"fuel_type":"DIESEL","price":1.425,"currency":"EUR","unit":"L","updated_at":"2026-06-24T18:13:16.821720+00:00"},{"fuel_type":"E10","price":1.383,"currency":"EUR","unit":"L","updated_at":"2026-06-24T18:13:16.821720+00:00"}]},{"id":"pl_xavvy_M_POL_10959610","country":"PL","name":"SHELL","brand":"SHELL","address":"Turkowska 5","city":"Przykona","lat":51.9829,"lon":18.6005,"source":"anwb.nl (ANWB POI API)","confidence":0.85,"prices":[{"fuel_type":"E10","price":1.397,"currency":"EUR","unit":"L","updated_at":"2026-06-24T18:13:16.821720+00:00"},{"fuel_type":"DIESEL","price":1.42,"currency":"EUR","unit":"L","updated_at":"2026-06-24T18:13:16.821720+00:00"}]},{"id":"pl_xavvy_M_POL_10959873","country":"PL","name":"MOYA","brand":"MOYA","address":"Ul. Rolnicza 2","city":"Lomazy","lat":51.89901,"lon":23.16272,"source":"anwb.nl (ANWB POI API)","confidence":0.85,"prices":[{"fuel_type":"DIESEL","price":1.35,"currency":"EUR","unit":"L","updated_at":"2026-06-24T18:13:16.821720+00:00"},{"fuel_type":"E10","price":1.35,"currency":"EUR","unit":"L","updated_at":"2026-06-24T18:13:16.821720+00:00"}]},{"id":"pl_xavvy_M_POL_1096155","country":"PL","name":"WATIS","brand":"WATIS","address":"Slawko Dolne 1","city":"Strzelno","lat":52.641717,"lon":18.182142,"source":"anwb.nl (ANWB POI API)","confidence":0.85,"prices":[{"fuel_type":"E10","price":1.359,"currency":"EUR","unit":"L","updated_at":"2026-06-24T18:13:16.821720+00:00"},{"fuel_type":"DIESEL","price":1.35,"currency":"EUR","unit":"L","updated_at":"2026-06-24T18:13:16.821720+00:00"}]},{"id":"pl_xavvy_M_POL_1096230","country":"PL","name":"MOYA","brand":"MOYA","address":"Ul. Michala K. Oginskiego 4c","city":"Jelenia Gora","lat":50.910857,"lon":15.759115,"source":"anwb.nl (ANWB POI API)","confidence":0.85,"prices":[{"fuel_type":"E10","price":1.355,"currency":"EUR","unit":"L","updated_at":"2026-06-24T18:13:16.821720+00:00"},{"fuel_type":"DIESEL","price":1.35,"currency":"EUR","unit":"L","updated_at":"2026-06-24T18:13:16.821720+00:00"}]},{"id":"pl_xavvy_M_POL_10977612","country":"PL","name":"SHELL","brand":"SHELL","address":"Gdanska 40","city":"Kaliska Koscierskie","lat":54.15885,"lon":18.03589,"source":"anwb.nl (ANWB POI API)","confidence":0.85,"prices":[{"fuel_type":"E10","price":1.373,"currency":"EUR","unit":"L","updated_at":"2026-06-24T18:13:16.821720+00:00"},{"fuel_type":"DIESEL","price":1.413,"currency":"EUR","unit":"L","updated_at":"2026-06-24T18:13:16.821720+00:00"}]},{"id":"pl_xavvy_M_POL_1101993","country":"PL","name":"JURWIT","brand":"JURWIT","address":"Mrzyglodzka 313","city":"Zawiercie","lat":50.519285,"lon":19.375967,"source":"anwb.nl (ANWB POI API)","confidence":0.85,"prices":[{"fuel_type":"E10","price":1.387,"currency":"EUR","unit":"L","updated_at":"2026-06-24T18:13:16.821720+00:00"}]},{"id":"pl_xavvy_M_POL_1102113","country":"PL","name":"MOYA","brand":"MOYA","address":"Rumunki Skepskie 28a","city":"Skepe","lat":52.882561,"lon":19.384242,"source":"anwb.nl (ANWB POI API)","confidence":0.85,"prices":[{"fuel_type":"E10","price":1.373,"currency":"EUR","unit":"L","updated_at":"2026-06-24T18:13:16.821720+00:00"},{"fuel_type":"DIESEL","price":1.35,"currency":"EUR","unit":"L","updated_at":"2026-06-24T18:13:16.821720+00:00"}]},{"id":"pl_xavvy_M_POL_11021569","country":"PL","name":"PIEPRZYK","brand":"PIEPRZYK","address":"Dzwonowo 25","city":"Dzwonowo","lat":53.069777,"lon":16.090931,"source":"anwb.nl (ANWB POI API)","confidence":0.85,"prices":[{"fuel_type":"E10","price":1.341,"currency":"EUR","unit":"L","updated_at":"2026-06-24T18:13:16.821720+00:00"},{"fuel_type":"DIESEL","price":1.35,"currency":"EUR","unit":"L","updated_at":"2026-06-24T18:13:16.821720+00:00"}]},{"id":"pl_xavvy_M_POL_11021620","country":"PL","name":"AVIA","brand":"AVIA","address":"Konary 109","city":"Warka","lat":51.87857,"lon":21.21479,"source":"anwb.nl (ANWB POI API)","confidence":0.85,"prices":[{"fuel_type":"E10","price":1.462,"currency":"EUR","unit":"L","updated_at":"2026-06-24T18:13:16.821720+00:00"},{"fuel_type":"DIESEL","price":1.35,"currency":"EUR","unit":"L","updated_at":"2026-06-24T18:13:16.821720+00:00"}]},{"id":"pl_xavvy_M_POL_11021651","country":"PL","name":"BP","brand":"BP","address":"Widelka 803a","city":"Widelka","lat":50.20079,"lon":21.857682,"source":"anwb.nl (ANWB POI API)","confidence":0.85,"prices":[{"fuel_type":"DIESEL","price":1.439,"currency":"EUR","unit":"L","updated_at":"2026-06-24T18:13:16.821720+00:00"},{"fuel_type":"E10","price":1.397,"currency":"EUR","unit":"L","updated_at":"2026-06-24T18:13:16.821720+00:00"}]},{"id":"pl_xavvy_M_POL_1102171","country":"PL","name":"CIRCLE K","brand":"CIRCLE K","address":"Autoport Dżangłera [Jędrzychowice 125]","city":"Jedrzychowice","lat":51.181415,"lon":15.035169,"source":"anwb.nl (ANWB POI API)","confidence":0.85,"prices":[{"fuel_type":"DIESEL","price":1.511,"currency":"EUR","unit":"L","updated_at":"2026-06-24T18:13:16.821720+00:00"},{"fuel_type":"E10","price":1.397,"currency":"EUR","unit":"L","updated_at":"2026-06-24T18:13:16.821720+00:00"}]},{"id":"pl_xavvy_M_POL_1102173","country":"PL","name":"ORLEN","brand":"ORLEN","address":"Legionow 48","city":"Pilzno","lat":49.986359,"lon":21.279236,"source":"anwb.nl (ANWB POI API)","confidence":0.85,"prices":[{"fuel_type":"DIESEL","price":1.42,"currency":"EUR","unit":"L","updated_at":"2026-06-24T18:13:16.821720+00:00"},{"fuel_type":"E10","price":1.392,"currency":"EUR","unit":"L","updated_at":"2026-06-24T18:13:16.821720+00:00"}]},{"id":"pl_xavvy_M_POL_11031748","country":"PL","name":"ARLIN","brand":"ARLIN","address":"Ul. Olkuska 66","city":"Klucze","lat":50.32806,"lon":19.560937,"source":"anwb.nl (ANWB POI API)","confidence":0.85,"prices":[{"fuel_type":"E10","price":1.39,"currency":"EUR","unit":"L","updated_at":"2026-06-24T18:13:16.821720+00:00"},{"fuel_type":"DIESEL","price":1.355,"currency":"EUR","unit":"L","updated_at":"2026-06-24T18:13:16.821720+00:00"}]},{"id":"pl_xavvy_M_POL_11031749","country":"PL","name":"ARLIN","brand":"ARLIN","address":"Makow 151","city":"Gołcza","lat":50.364281,"lon":19.87619,"source":"anwb.nl (ANWB POI API)","confidence":0.85,"prices":[{"fuel_type":"E10","price":1.411,"currency":"EUR","unit":"L","updated_at":"2026-06-24T18:13:16.821720+00:00"}]},{"id":"pl_xavvy_M_POL_11051730","country":"PL","name":"QUALITY","brand":"QUALITY","address":"Budowlanych 6","city":"Zary","lat":51.653047,"lon":15.138597,"source":"anwb.nl (ANWB POI API)","confidence":0.85,"prices":[{"fuel_type":"DIESEL","price":1.35,"currency":"EUR","unit":"L","updated_at":"2026-06-24T18:13:16.821720+00:00"}]},{"id":"pl_xavvy_M_POL_11052810","country":"PL","name":"ORLEN","brand":"ORLEN","address":"Sikorz 68c","city":"Sikorz","lat":52.643212,"lon":19.578048,"source":"anwb.nl (ANWB POI API)","confidence":0.85,"prices":[{"fuel_type":"DIESEL","price":1.418,"currency":"EUR","unit":"L","updated_at":"2026-06-24T18:13:16.821720+00:00"},{"fuel_type":"E10","price":1.392,"currency":"EUR","unit":"L","updated_at":"2026-06-24T18:13:16.821720+00:00"}]},{"id":"pl_xavvy_M_POL_11052811","country":"PL","name":"ORLEN","brand":"ORLEN","address":"Uzdowo 83a","city":"Uzdowo","lat":53.34834,"lon":20.108996,"source":"anwb.nl (ANWB POI API)","confidence":0.85,"prices":[{"fuel_type":"E10","price":1.392,"currency":"EUR","unit":"L","updated_at":"2026-06-24T18:13:16.821720+00:00"},{"fuel_type":"DIESEL","price":1.427,"currency":"EUR","unit":"L","updated_at":"2026-06-24T18:13:16.821720+00:00"}]},{"id":"pl_xavvy_M_POL_11058375","country":"PL","name":"ORLEN","brand":"ORLEN","address":"Walentynow 96","city":"Walentynow","lat":51.213377,"lon":21.247937,"source":"anwb.nl (ANWB POI API)","confidence":0.85,"prices":[{"fuel_type":"E10","price":1.401,"currency":"EUR","unit":"L","updated_at":"2026-06-24T18:13:16.821720+00:00"},{"fuel_type":"DIESEL","price":1.42,"currency":"EUR","unit":"L","updated_at":"2026-06-24T18:13:16.821720+00:00"}]},{"id":"pl_xavvy_M_POL_11069041","country":"PL","name":"BP","brand":"BP","address":"Sekowice 34d","city":"Gubin","lat":51.905439,"lon":14.700904,"source":"anwb.nl (ANWB POI API)","confidence":0.85,"prices":[{"fuel_type":"E10","price":1.383,"currency":"EUR","unit":"L","updated_at":"2026-06-24T18:13:16.821720+00:00"},{"fuel_type":"DIESEL","price":1.35,"currency":"EUR","unit":"L","updated_at":"2026-06-24T18:13:16.821720+00:00"}]},{"id":"pl_xavvy_M_POL_11078108","country":"PL","name":"MOYA","brand":"MOYA","address":"Włostów 313","city":"Lipnik","lat":50.741817,"lon":21.458964,"source":"anwb.nl (ANWB POI API)","confidence":0.85,"prices":[{"fuel_type":"E10","price":1.343,"currency":"EUR","unit":"L","updated_at":"2026-06-24T18:13:16.821720+00:00"},{"fuel_type":"DIESEL","price":1.35,"currency":"EUR","unit":"L","updated_at":"2026-06-24T18:13:16.821720+00:00"}]},{"id":"pl_xavvy_M_POL_11078114","country":"PL","name":"SHELL","brand":"SHELL","address":"Serbska 31","city":"Zary","lat":51.635337,"lon":15.11572,"source":"anwb.nl (ANWB POI API)","confidence":0.85,"prices":[{"fuel_type":"E10","price":1.373,"currency":"EUR","unit":"L","updated_at":"2026-06-24T18:13:16.821720+00:00"},{"fuel_type":"DIESEL","price":1.42,"currency":"EUR","unit":"L","updated_at":"2026-06-24T18:13:16.821720+00:00"}]},{"id":"pl_xavvy_M_POL_11078119","country":"PL","name":"MOYA","brand":"MOYA","address":"Ul. Poludniowa 46","city":"Jagatowo","lat":54.209296,"lon":18.530049,"source":"anwb.nl (ANWB POI API)","confidence":0.85,"prices":[{"fuel_type":"DIESEL","price":1.35,"currency":"EUR","unit":"L","updated_at":"2026-06-24T18:13:16.821720+00:00"},{"fuel_type":"E10","price":1.35,"currency":"EUR","unit":"L","updated_at":"2026-06-24T18:13:16.821720+00:00"}]},{"id":"pl_xavvy_M_POL_11078122","country":"PL","name":"MOYA","brand":"MOYA","address":"Ul. Logistyczna","city":"Stary Kisielin","lat":51.925699,"lon":15.576979,"source":"anwb.nl (ANWB POI API)","confidence":0.85,"prices":[{"fuel_type":"DIESEL","price":1.35,"currency":"EUR","unit":"L","updated_at":"2026-06-24T18:13:16.821720+00:00"}]},{"id":"pl_xavvy_M_POL_11078129","country":"PL","name":"MOYA","brand":"MOYA","address":"Gierlatowo","city":"Nekla","lat":52.353662,"lon":17.448766,"source":"anwb.nl (ANWB POI API)","confidence":0.85,"prices":[{"fuel_type":"E10","price":1.355,"currency":"EUR","unit":"L","updated_at":"2026-06-24T18:13:16.821720+00:00"},{"fuel_type":"DIESEL","price":1.35,"currency":"EUR","unit":"L","updated_at":"2026-06-24T18:13:16.821720+00:00"}]},{"id":"pl_xavvy_M_POL_11078130","country":"PL","name":"MOYA","brand":"MOYA","address":"Ul. Szczecinska 80","city":"Tanowo","lat":53.534206,"lon":14.468058,"source":"anwb.nl (ANWB POI API)","confidence":0.85,"prices":[{"fuel_type":"E10","price":1.345,"currency":"EUR","unit":"L","updated_at":"2026-06-24T18:13:16.821720+00:00"},{"fuel_type":"DIESEL","price":1.35,"currency":"EUR","unit":"L","updated_at":"2026-06-24T18:13:16.821720+00:00"}]},{"id":"pl_xavvy_M_POL_11124377","country":"PL","name":"MOYA","brand":"MOYA","address":"Ul. Opolska 1a","city":"Bierdzany","lat":50.817818,"lon":18.144478,"source":"anwb.nl (ANWB POI API)","confidence":0.85,"prices":[{"fuel_type":"E10","price":1.343,"currency":"EUR","unit":"L","updated_at":"2026-06-24T18:13:16.821720+00:00"},{"fuel_type":"DIESEL","price":1.35,"currency":"EUR","unit":"L","updated_at":"2026-06-24T18:13:16.821720+00:00"}]},{"id":"pl_xavvy_M_POL_11149331","country":"PL","name":"MOYA","brand":"MOYA","address":"Glowna 76","city":"Tomaszow Mazowiecki","lat":51.548553,"lon":20.027536,"source":"anwb.nl (ANWB POI API)","confidence":0.85,"prices":[{"fuel_type":"E10","price":1.352,"currency":"EUR","unit":"L","updated_at":"2026-06-24T18:13:16.821720+00:00"},{"fuel_type":"DIESEL","price":1.35,"currency":"EUR","unit":"L","updated_at":"2026-06-24T18:13:16.821720+00:00"}]},{"id":"pl_xavvy_M_POL_11149338","country":"PL","name":"PIEPRZYK","brand":"PIEPRZYK","address":"Franciszkowo 33b","city":"Franciszkowo","lat":53.648941,"lon":19.755894,"source":"anwb.nl (ANWB POI API)","confidence":0.85,"prices":[{"fuel_type":"DIESEL","price":1.35,"currency":"EUR","unit":"L","updated_at":"2026-06-24T18:13:16.821720+00:00"}]},{"id":"pl_xavvy_M_POL_11149339","country":"PL","name":"MOYA","brand":"MOYA","address":"Loniow 166","city":"Loniow","lat":50.558361,"lon":21.524142,"source":"anwb.nl (ANWB POI API)","confidence":0.85,"prices":[{"fuel_type":"E10","price":1.343,"currency":"EUR","unit":"L","updated_at":"2026-06-24T18:13:16.821720+00:00"},{"fuel_type":"DIESEL","price":1.35,"currency":"EUR","unit":"L","updated_at":"2026-06-24T18:13:16.821720+00:00"}]},{"id":"pl_xavvy_M_POL_11149347","country":"PL","name":"ORLEN","brand":"ORLEN","address":"Magazynowa 2","city":"Grudziadz","lat":53.437714,"lon":18.72453,"source":"anwb.nl (ANWB POI API)","confidence":0.85,"prices":[{"fuel_type":"DIESEL","price":1.42,"currency":"EUR","unit":"L","updated_at":"2026-06-24T18:13:16.821720+00:00"},{"fuel_type":"E10","price":1.392,"currency":"EUR","unit":"L","updated_at":"2026-06-24T18:13:16.821720+00:00"}]},{"id":"pl_xavvy_M_POL_11196584","country":"PL","name":"EKO-TANK","brand":"EKO-TANK","address":"Szwedzka 1h","city":"Okmiany","lat":51.27478,"lon":15.784184,"source":"anwb.nl (ANWB POI API)","confidence":0.85,"prices":[{"fuel_type":"DIESEL","price":1.35,"currency":"EUR","unit":"L","updated_at":"2026-06-24T18:13:16.821720+00:00"}]},{"id":"pl_xavvy_M_POL_11238532","country":"PL","name":"HOREX","brand":"HOREX","address":"Rybno 35","city":"Rybno","lat":51.926184,"lon":15.456265,"source":"anwb.nl (ANWB POI API)","confidence":0.85,"prices":[{"fuel_type":"DIESEL","price":1.35,"currency":"EUR","unit":"L","updated_at":"2026-06-24T18:13:16.821720+00:00"}]},{"id":"pl_xavvy_M_POL_11242882","country":"PL","name":"MIKSTOL","brand":"MIKSTOL","address":"Boiskowa 10","city":"Nadnia","lat":52.253306,"lon":15.875425,"source":"anwb.nl (ANWB POI API)","confidence":0.85,"prices":[{"fuel_type":"DIESEL","price":1.35,"currency":"EUR","unit":"L","updated_at":"2026-06-24T18:13:16.821720+00:00"}]},{"id":"pl_xavvy_M_POL_11257474","country":"PL","name":"WATIS","brand":"WATIS","address":"Slubicka 4","city":"Legnica","lat":51.217606,"lon":16.158085,"source":"anwb.nl (ANWB POI API)","confidence":0.85,"prices":[{"fuel_type":"DIESEL","price":1.35,"currency":"EUR","unit":"L","updated_at":"2026-06-24T18:13:16.821720+00:00"},{"fuel_type":"E10","price":1.35,"currency":"EUR","unit":"L","updated_at":"2026-06-24T18:13:16.821720+00:00"}]},{"id":"pl_xavvy_M_POL_11257566","country":"PL","name":"MOL","brand":"MOL","address":"Wesola 2","city":"Wygoda","lat":53.072378,"lon":22.151103,"source":"anwb.nl (ANWB POI API)","confidence":0.85,"prices":[{"fuel_type":"E10","price":1.392,"currency":"EUR","unit":"L","updated_at":"2026-06-24T18:13:16.821720+00:00"},{"fuel_type":"DIESEL","price":1.35,"currency":"EUR","unit":"L","updated_at":"2026-06-24T18:13:16.821720+00:00"}]},{"id":"pl_xavvy_M_POL_11257641","country":"PL","name":"AVIA","brand":"AVIA","address":"Wenecja 9","city":"Wadowice","lat":49.875806,"lon":19.513753,"source":"anwb.nl (ANWB POI API)","confidence":0.85,"prices":[{"fuel_type":"DIESEL","price":1.35,"currency":"EUR","unit":"L","updated_at":"2026-06-24T18:13:16.821720+00:00"}]},{"id":"pl_xavvy_M_POL_11260453","country":"PL","name":"CIRCLE K","brand":"CIRCLE K","address":"Ul. Podsanie 16","city":"Nisko","lat":50.536459,"lon":22.139576,"source":"anwb.nl (ANWB POI API)","confidence":0.85,"prices":[{"fuel_type":"DIESEL","price":1.418,"currency":"EUR","unit":"L","updated_at":"2026-06-24T18:13:16.821720+00:00"},{"fuel_type":"E10","price":1.385,"currency":"EUR","unit":"L","updated_at":"2026-06-24T18:13:16.821720+00:00"}]},